[
    {
        "region": "CA",
        "id": 53,
        "name": "EndrasBMW",
        "latitude": 43.8534085,
        "longitude": -79.0098766
    },
    {
        "region": "CA",
        "id": 4581,
        "name": "GusBrownPontiacBuickGMC",
        "latitude": 44.0947458,
        "longitude": -78.9426707
    },
    {
        "region": "CA",
        "id": 7645,
        "name": "LakeshoreHonda",
        "latitude": 43.594903,
        "longitude": -79.5317694
    },
    {
        "region": "CA",
        "id": 12410,
        "name": "MarinosFineCars",
        "latitude": 43.5950575,
        "longitude": -79.5325757
    },
    {
        "region": "CA",
        "id": 16955,
        "name": "DowntownToyota",
        "latitude": 43.6583639,
        "longitude": -79.3510019
    },
    {
        "region": "CA",
        "id": 16956,
        "name": "ToyotaOnFront",
        "latitude": 43.6416608,
        "longitude": -79.39841489999999
    },
    {
        "region": "CA",
        "id": 18298,
        "name": "InfinitiDowntown",
        "latitude": 43.6511678,
        "longitude": -79.3637263
    },
    {
        "region": "CA",
        "id": 18414,
        "name": "LexusDowntown",
        "latitude": 43.6616298,
        "longitude": -79.35660829999999
    },
    {
        "region": "CA",
        "id": 19900,
        "name": "ErinMillsAcura",
        "latitude": 43.527759,
        "longitude": -79.677696
    },
    {
        "region": "CA",
        "id": 19901,
        "name": "TownandCountryVW",
        "latitude": 43.8532933,
        "longitude": -79.30743079999999
    },
    {
        "region": "CA",
        "id": 19902,
        "name": "TownandCountryBMW",
        "latitude": 43.8546178,
        "longitude": -79.3062508
    },
    {
        "region": "CA",
        "id": 19904,
        "name": "EAudiTestDealer",
        "latitude": 43.763168,
        "longitude": -79.406611
    },
    {
        "region": "CA",
        "id": 19905,
        "name": "SisleyHonda",
        "latitude": 43.7982857,
        "longitude": -79.4229084
    },
    {
        "region": "CA",
        "id": 19906,
        "name": "SevenViewChrysler",
        "latitude": 43.7972746,
        "longitude": -79.5109839
    },
    {
        "region": "CA",
        "id": 19907,
        "name": "AjaxMazda",
        "latitude": 43.8401778,
        "longitude": -79.0282603
    },
    {
        "region": "CA",
        "id": 19908,
        "name": "MaranelloBMW",
        "latitude": 43.7842279,
        "longitude": -79.54837260000001
    },
    {
        "region": "CA",
        "id": 19909,
        "name": "PickeringHonda",
        "latitude": 43.850216,
        "longitude": -79.071529
    },
    {
        "region": "CA",
        "id": 19910,
        "name": "PerformanceBMW",
        "latitude": 43.1801856,
        "longitude": -79.2497839
    },
    {
        "region": "CA",
        "id": 19911,
        "name": "Pfaff Audi",
        "latitude": 43.8285828,
        "longitude": -79.53211069999999
    },
    {
        "region": "CA",
        "id": 19912,
        "name": "PerformanceAcura",
        "latitude": 43.1780701,
        "longitude": -79.2593062
    },
    {
        "region": "CA",
        "id": 19913,
        "name": "PerformanceToyota",
        "latitude": 43.1753214,
        "longitude": -79.2512392
    },
    {
        "region": "CA",
        "id": 19914,
        "name": "PerformanceMercedesBenz",
        "latitude": 43.1697443,
        "longitude": -79.26431079999999
    },
    {
        "region": "CA",
        "id": 19915,
        "name": "PerformanceChrysler",
        "latitude": 43.17337879999999,
        "longitude": -79.265607
    },
    {
        "region": "CA",
        "id": 19918,
        "name": "Honda Downtown",
        "latitude": 43.65297940000001,
        "longitude": -79.3600591
    },
    {
        "region": "CA",
        "id": 19919,
        "name": "DownTownAcura",
        "latitude": 43.6524885,
        "longitude": -79.3586687
    },
    {
        "region": "CA",
        "id": 19920,
        "name": "ImageHonda",
        "latitude": 43.23479150000001,
        "longitude": -79.7614871
    },
    {
        "region": "CA",
        "id": 19921,
        "name": "QueenstonontheMountain",
        "latitude": 43.1743244,
        "longitude": -79.7816275
    },
    {
        "region": "CA",
        "id": 19923,
        "name": "NorthYorkChrysler",
        "latitude": 43.8016746,
        "longitude": -79.422748
    },
    {
        "region": "CA",
        "id": 19924,
        "name": "NorthwestLexus",
        "latitude": 43.7359163,
        "longitude": -79.7051649
    },
    {
        "region": "CA",
        "id": 19925,
        "name": "GrandTouringToronto",
        "latitude": 43.6615719,
        "longitude": -79.3545807
    },
    {
        "region": "CA",
        "id": 19926,
        "name": "GrandTouringMaple",
        "latitude": 43.8356777,
        "longitude": -79.53552619999999
    },
    {
        "region": "CA",
        "id": 19927,
        "name": "MetroWestJLR",
        "latitude": 43.6324996,
        "longitude": -79.5440289
    },
    {
        "region": "CA",
        "id": 19928,
        "name": "BMWAutohaus",
        "latitude": 43.7980481,
        "longitude": -79.4200735
    },
    {
        "region": "CA",
        "id": 19929,
        "name": "MississaugaHonda",
        "latitude": 43.531258,
        "longitude": -79.676191
    },
    {
        "region": "CA",
        "id": 19931,
        "name": "AudiDowntown",
        "latitude": 43.6600058,
        "longitude": -79.3558888
    },
    {
        "region": "CA",
        "id": 19932,
        "name": "VWDowntown",
        "latitude": 43.6532902,
        "longitude": -79.3640739
    },
    {
        "region": "CA",
        "id": 19933,
        "name": "VolvoVilla",
        "latitude": 43.7966671,
        "longitude": -79.4274777
    },
    {
        "region": "CA",
        "id": 19934,
        "name": "JaguarLandRoverThornhill",
        "latitude": 43.7954551,
        "longitude": -79.4353122
    },
    {
        "region": "CA",
        "id": 19935,
        "name": "EconomyWheelsNissan",
        "latitude": 44.3587976,
        "longitude": -78.75462069999999
    },
    {
        "region": "CA",
        "id": 19936,
        "name": "VolvoofUnionville",
        "latitude": 43.8589602,
        "longitude": -79.32019059999999
    },
    {
        "region": "CA",
        "id": 19937,
        "name": "gentrylane",
        "latitude": 43.6711514,
        "longitude": -79.4250984
    },
    {
        "region": "CA",
        "id": 19938,
        "name": "WillowdaleSubaru",
        "latitude": 43.7966601,
        "longitude": -79.4265082
    },
    {
        "region": "CA",
        "id": 19939,
        "name": "stouffvilletoyota",
        "latitude": 43.9691262,
        "longitude": -79.280776
    },
    {
        "region": "CA",
        "id": 19940,
        "name": "DurhamKia",
        "latitude": 43.9291722,
        "longitude": -78.897894
    },
    {
        "region": "CA",
        "id": 19941,
        "name": "hoganchevrolet",
        "latitude": 43.7932469,
        "longitude": -79.2417747
    },
    {
        "region": "CA",
        "id": 19942,
        "name": "Sherway Nissan",
        "latitude": 43.6205169,
        "longitude": -79.5289179
    },
    {
        "region": "CA",
        "id": 19943,
        "name": "VolkswagenVilla",
        "latitude": 43.7980481,
        "longitude": -79.4200735
    },
    {
        "region": "CA",
        "id": 19944,
        "name": "HumberviewChevrolet",
        "latitude": 43.64619709999999,
        "longitude": -79.5166856
    },
    {
        "region": "CA",
        "id": 19945,
        "name": "MercedesBenzOakville",
        "latitude": 43.44446569999999,
        "longitude": -79.7014196
    },
    {
        "region": "CA",
        "id": 19946,
        "name": "TorontoDodgeChrysler",
        "latitude": 43.651673,
        "longitude": -79.361055
    },
    {
        "region": "CA",
        "id": 19947,
        "name": "HenleyHonda",
        "latitude": 43.1847118,
        "longitude": -79.25103
    },
    {
        "region": "CA",
        "id": 19948,
        "name": "RichmondHillHonda",
        "latitude": 43.8536636,
        "longitude": -79.4303954
    },
    {
        "region": "CA",
        "id": 19950,
        "name": "VolvoofToronto",
        "latitude": 43.6526152,
        "longitude": -79.3600692
    },
    {
        "region": "CA",
        "id": 19951,
        "name": "BMWLondon",
        "latitude": 42.944498,
        "longitude": -81.2567
    },
    {
        "region": "CA",
        "id": 19953,
        "name": "AudiUptown",
        "latitude": 43.8589142,
        "longitude": -79.3206213
    },
    {
        "region": "CA",
        "id": 19954,
        "name": "ClassicHonda",
        "latitude": 43.699613,
        "longitude": -79.79805449999999
    },
    {
        "region": "CA",
        "id": 19955,
        "name": "MazdaofBrampton",
        "latitude": 43.6990923,
        "longitude": -79.7964284
    },
    {
        "region": "CA",
        "id": 19956,
        "name": "KiaofBrampton",
        "latitude": 43.70189480000001,
        "longitude": -79.7953982
    },
    {
        "region": "CA",
        "id": 19957,
        "name": "PlanetFord",
        "latitude": 43.7013324,
        "longitude": -79.7945609
    },
    {
        "region": "CA",
        "id": 19959,
        "name": "SubaruOfBrampton",
        "latitude": 43.7002355,
        "longitude": -79.7980213
    },
    {
        "region": "CA",
        "id": 19960,
        "name": "BramptonNorthNissan",
        "latitude": 43.6990799,
        "longitude": -79.7964156
    },
    {
        "region": "CA",
        "id": 19961,
        "name": "SuzukiofBrampton",
        "latitude": 43.6994421,
        "longitude": -79.7959569
    },
    {
        "region": "CA",
        "id": 19962,
        "name": "WhitbyOshawaHonda",
        "latitude": 43.8730377,
        "longitude": -78.906919
    },
    {
        "region": "CA",
        "id": 19963,
        "name": "Grimsby Hyundai",
        "latitude": 43.2053526,
        "longitude": -79.6269459
    },
    {
        "region": "CA",
        "id": 19964,
        "name": "RoadsportHonda",
        "latitude": 43.7665209,
        "longitude": -79.27976249999999
    },
    {
        "region": "CA",
        "id": 19965,
        "name": "London'sAirportKia",
        "latitude": 43.011238,
        "longitude": -81.1519026
    },
    {
        "region": "CA",
        "id": 19966,
        "name": "AirportHyundai",
        "latitude": 43.008188,
        "longitude": -81.16526669999999
    },
    {
        "region": "CA",
        "id": 19967,
        "name": "WestgateHonda",
        "latitude": 42.98267999999999,
        "longitude": -81.29587029999999
    },
    {
        "region": "CA",
        "id": 19971,
        "name": "CollingwoodToyota",
        "latitude": 44.5002546,
        "longitude": -80.1951057
    },
    {
        "region": "CA",
        "id": 19972,
        "name": "EastCourtFordLincoln",
        "latitude": 43.7899246,
        "longitude": -79.2574824
    },
    {
        "region": "CA",
        "id": 19974,
        "name": "NiagaraFallsNissan",
        "latitude": 43.051003,
        "longitude": -79.1214438
    },
    {
        "region": "CA",
        "id": 19975,
        "name": "RoseCityChrysler",
        "latitude": 42.9675147,
        "longitude": -79.2618763
    },
    {
        "region": "CA",
        "id": 19976,
        "name": "Mazda of Toronto",
        "latitude": 43.79332369999999,
        "longitude": -79.41878
    },
    {
        "region": "CA",
        "id": 19977,
        "name": "WhitbyMazda",
        "latitude": 43.8708973,
        "longitude": -78.9134613
    },
    {
        "region": "CA",
        "id": 19978,
        "name": "HaltonHonda",
        "latitude": 43.3645874,
        "longitude": -79.7799467
    },
    {
        "region": "CA",
        "id": 19979,
        "name": "HaltonAutoLease",
        "latitude": 43.3658663,
        "longitude": -79.7798494
    },
    {
        "region": "CA",
        "id": 19980,
        "name": "TorontoNorthPre-OwnedAutomobiles",
        "latitude": 43.7854315,
        "longitude": -79.417757
    },
    {
        "region": "CA",
        "id": 19981,
        "name": "GlenFenwickHyundai",
        "latitude": 42.9586946,
        "longitude": -82.38007329999999
    },
    {
        "region": "CA",
        "id": 19982,
        "name": "Wellandtoyota",
        "latitude": 43.0204232,
        "longitude": -79.249839
    },
    {
        "region": "CA",
        "id": 19983,
        "name": "BickleyFord",
        "latitude": 45.3130069,
        "longitude": -79.2488599
    },
    {
        "region": "CA",
        "id": 19984,
        "name": "VillageNissan",
        "latitude": 43.8555862,
        "longitude": -79.3016821
    },
    {
        "region": "CA",
        "id": 19985,
        "name": "MichaelBoyerChevroletCadillacBuickGMCLtd.",
        "latitude": 43.8206394,
        "longitude": -79.11312939999999
    },
    {
        "region": "CA",
        "id": 19987,
        "name": "JimKeayFordLincoln",
        "latitude": 45.4654617,
        "longitude": -75.5446817
    },
    {
        "region": "CA",
        "id": 19988,
        "name": "BankStreetMazdaOttawa",
        "latitude": 45.3540324,
        "longitude": -75.64109040000001
    },
    {
        "region": "CA",
        "id": 19989,
        "name": "MercedesBenzDurham",
        "latitude": 43.87402220000001,
        "longitude": -78.9082342
    },
    {
        "region": "CA",
        "id": 19990,
        "name": "401DixieInfiniti",
        "latitude": 43.6455518,
        "longitude": -79.63695729999999
    },
    {
        "region": "CA",
        "id": 19992,
        "name": "NewRoadsChevroletCadillacBuickGMC",
        "latitude": 44.0684213,
        "longitude": -79.4841007
    },
    {
        "region": "CA",
        "id": 19995,
        "name": "ToyotaTownandLexusofLondon",
        "latitude": 42.9368855,
        "longitude": -81.2617126
    },
    {
        "region": "CA",
        "id": 19996,
        "name": "LindsayBuickGMCLtd",
        "latitude": 44.3588812,
        "longitude": -78.75438419999999
    },
    {
        "region": "CA",
        "id": 19997,
        "name": "MississaugaHyundai",
        "latitude": 43.5300827,
        "longitude": -79.6778152
    },
    {
        "region": "CA",
        "id": 19998,
        "name": "RichmondHillHyundai",
        "latitude": 43.9004071,
        "longitude": -79.4441105
    },
    {
        "region": "CA",
        "id": 20000,
        "name": "NissanDowntown",
        "latitude": 43.6511678,
        "longitude": -79.3637263
    },
    {
        "region": "CA",
        "id": 20001,
        "name": "VWVictoria",
        "latitude": 48.4504385,
        "longitude": -123.3733479
    },
    {
        "region": "CA",
        "id": 20002,
        "name": "AudiAutohausVictoriaBC",
        "latitude": 48.42462,
        "longitude": -123.353116
    },
    {
        "region": "CA",
        "id": 20003,
        "name": "ThreePointMercedesBenzVictoria",
        "latitude": 48.436867,
        "longitude": -123.367714
    },
    {
        "region": "CA",
        "id": 20004,
        "name": "BMWVictoria (BC)",
        "latitude": 48.42798699999999,
        "longitude": -123.376402
    },
    {
        "region": "CA",
        "id": 20005,
        "name": "CityBuickChevCadillac",
        "latitude": 43.7444538,
        "longitude": -79.3112695
    },
    {
        "region": "CA",
        "id": 20006,
        "name": "DonValleyNorthLexus",
        "latitude": 43.8151151,
        "longitude": -79.3457468
    },
    {
        "region": "CA",
        "id": 20007,
        "name": "OrangevilleHonda",
        "latitude": 43.9235146,
        "longitude": -80.07260029999999
    },
    {
        "region": "CA",
        "id": 20008,
        "name": "PorscheCentreVictoriaBC",
        "latitude": 48.45106029999999,
        "longitude": -123.3737257
    },
    {
        "region": "CA",
        "id": 20009,
        "name": "Budds'BMWHamilton",
        "latitude": 43.2066997,
        "longitude": -79.8911558
    },
    {
        "region": "CA",
        "id": 20010,
        "name": "FamilyHonda",
        "latitude": 43.7455678,
        "longitude": -79.6947773
    },
    {
        "region": "CA",
        "id": 20011,
        "name": "BurrardAcuraVancouver",
        "latitude": 49.2706192,
        "longitude": -123.0887029
    },
    {
        "region": "CA",
        "id": 20012,
        "name": "LindsayKia",
        "latitude": 44.3487543,
        "longitude": -78.7670084
    },
    {
        "region": "CA",
        "id": 20013,
        "name": "RichmondHillMitsubishi",
        "latitude": 43.90234969999999,
        "longitude": -79.4445803
    },
    {
        "region": "CA",
        "id": 20014,
        "name": "StratfordHonda",
        "latitude": 43.37348679999999,
        "longitude": -80.98698189999999
    },
    {
        "region": "CA",
        "id": 20015,
        "name": "Brimell Toyota",
        "latitude": 43.793291,
        "longitude": -79.2418017
    },
    {
        "region": "CA",
        "id": 20016,
        "name": "AcuraofBarrie",
        "latitude": 44.3323431,
        "longitude": -79.698475
    },
    {
        "region": "CA",
        "id": 20017,
        "name": "AcuraofLangleyBC",
        "latitude": 49.11372979999999,
        "longitude": -122.6614027
    },
    {
        "region": "CA",
        "id": 20018,
        "name": "RedHillToyotaScionHamilton",
        "latitude": 43.23860570000001,
        "longitude": -79.76791329999999
    },
    {
        "region": "CA",
        "id": 20019,
        "name": "UpperJamesToyota",
        "latitude": 43.2227852,
        "longitude": -79.8841909
    },
    {
        "region": "CA",
        "id": 20021,
        "name": "ParkwayNissan",
        "latitude": 43.2354417,
        "longitude": -79.7611948
    },
    {
        "region": "CA",
        "id": 20022,
        "name": "ParkShoreBMW",
        "latitude": 49.3159454,
        "longitude": -123.0988813
    },
    {
        "region": "CA",
        "id": 20023,
        "name": "PerformanceLexus",
        "latitude": 43.1752861,
        "longitude": -79.25124009999999
    },
    {
        "region": "CA",
        "id": 20024,
        "name": "MorreyMazdaNorthShoreVancouver",
        "latitude": 49.3166713,
        "longitude": -123.0997324
    },
    {
        "region": "CA",
        "id": 20025,
        "name": "ScarborotownChryslerDodgeJeepRamLtd.",
        "latitude": 43.7928763,
        "longitude": -79.246631
    },
    {
        "region": "CA",
        "id": 20026,
        "name": "MeadowvaleHonda",
        "latitude": 43.5832594,
        "longitude": -79.7379412
    },
    {
        "region": "CA",
        "id": 20027,
        "name": "CarmaxHyundaiLindsay",
        "latitude": 44.3158138,
        "longitude": -78.7172588
    },
    {
        "region": "CA",
        "id": 20028,
        "name": "KenShawToyotaToronto",
        "latitude": 43.6704246,
        "longitude": -79.47933119999999
    },
    {
        "region": "CA",
        "id": 20029,
        "name": "Otto'sBMWOTTAWA",
        "latitude": 45.3974526,
        "longitude": -75.7081597
    },
    {
        "region": "CA",
        "id": 20032,
        "name": "GordScottNissan",
        "latitude": 52.29772759999999,
        "longitude": -113.814059
    },
    {
        "region": "CA",
        "id": 20033,
        "name": "OpenRoadMazdaPortMoodyBC",
        "latitude": 49.2769401,
        "longitude": -122.8359392
    },
    {
        "region": "CA",
        "id": 20034,
        "name": "Newmarket Hyundai",
        "latitude": 44.0719556,
        "longitude": -79.43245089999999
    },
    {
        "region": "CA",
        "id": 20035,
        "name": "Otto'sSubaruOTTAWA",
        "latitude": 45.3944985,
        "longitude": -75.7494308
    },
    {
        "region": "CA",
        "id": 20036,
        "name": "MapleToyota",
        "latitude": 43.8357261,
        "longitude": -79.5351198
    },
    {
        "region": "CA",
        "id": 20037,
        "name": "JaguarLandRoverVolvoOttawaO/AStLaurentAutomotiveGroup",
        "latitude": 45.41989239999999,
        "longitude": -75.6314469
    },
    {
        "region": "CA",
        "id": 20038,
        "name": "Dormani - Mega Mitsubishi",
        "latitude": 45.4767735,
        "longitude": -75.74414709999999
    },
    {
        "region": "CA",
        "id": 20039,
        "name": "BarrieSubaru",
        "latitude": 44.3017516,
        "longitude": -79.6811263
    },
    {
        "region": "CA",
        "id": 20040,
        "name": "MercedesBenzBarrie",
        "latitude": 44.3017516,
        "longitude": -79.6811263
    },
    {
        "region": "CA",
        "id": 20041,
        "name": "PrimaMazda",
        "latitude": 43.7734623,
        "longitude": -79.6088223
    },
    {
        "region": "CA",
        "id": 20042,
        "name": "PineTreeFordLincoln",
        "latitude": 43.7842279,
        "longitude": -79.54837260000001
    },
    {
        "region": "CA",
        "id": 20044,
        "name": "Summitford",
        "latitude": 43.739739,
        "longitude": -79.60511199999999
    },
    {
        "region": "CA",
        "id": 20045,
        "name": "BytekVWOTTAWA",
        "latitude": 45.4187068,
        "longitude": -75.6336199
    },
    {
        "region": "CA",
        "id": 20046,
        "name": "CarlingMotorsOTTAWA",
        "latitude": 45.3798655,
        "longitude": -75.7481857
    },
    {
        "region": "CA",
        "id": 20047,
        "name": "RobinsonGMC",
        "latitude": 43.5382761,
        "longitude": -80.3144384
    },
    {
        "region": "CA",
        "id": 20048,
        "name": "PerformanceHyundai",
        "latitude": 43.1706669,
        "longitude": -79.2646249
    },
    {
        "region": "CA",
        "id": 20050,
        "name": "PickeringChrysler",
        "latitude": 43.8245748,
        "longitude": -79.1060667
    },
    {
        "region": "CA",
        "id": 20051,
        "name": "Weissach Vancouver",
        "latitude": 49.2698911,
        "longitude": -123.1445839
    },
    {
        "region": "CA",
        "id": 20052,
        "name": "MidtownMotors",
        "latitude": 43.0410566,
        "longitude": -80.8912606
    },
    {
        "region": "CA",
        "id": 20053,
        "name": "TonyGrahamToyota",
        "latitude": 45.3362037,
        "longitude": -75.724756
    },
    {
        "region": "CA",
        "id": 20054,
        "name": "TonyGrahamLexus",
        "latitude": 45.33945019999999,
        "longitude": -75.7140892
    },
    {
        "region": "CA",
        "id": 20055,
        "name": "HuntClubNissanOTTAWA",
        "latitude": 45.3405859,
        "longitude": -75.70894249999999
    },
    {
        "region": "CA",
        "id": 20057,
        "name": "ScarsviewChrysler",
        "latitude": 43.8010795,
        "longitude": -79.1890883
    },
    {
        "region": "CA",
        "id": 20058,
        "name": "WestwoodHonda",
        "latitude": 49.27743,
        "longitude": -122.8266546
    },
    {
        "region": "CA",
        "id": 20059,
        "name": "MapleHonda",
        "latitude": 43.8356372,
        "longitude": -79.5350481
    },
    {
        "region": "CA",
        "id": 20060,
        "name": "KenShawAutomotive",
        "latitude": 43.6702447,
        "longitude": -79.47803350000001
    },
    {
        "region": "CA",
        "id": 20061,
        "name": "WillsChevroletBuickGMCGrimsby",
        "latitude": 43.1840144,
        "longitude": -79.5139007
    },
    {
        "region": "CA",
        "id": 20062,
        "name": "EdLearnFordSTCatharines",
        "latitude": 43.1747219,
        "longitude": -79.2662124
    },
    {
        "region": "CA",
        "id": 20063,
        "name": "OldMillG.M.Toronto",
        "latitude": 43.6671366,
        "longitude": -79.4906492
    },
    {
        "region": "CA",
        "id": 20064,
        "name": "RendezVousNissanOTTAWA",
        "latitude": 45.6060931,
        "longitude": -74.5834845
    },
    {
        "region": "CA",
        "id": 20067,
        "name": "MyersVWOTTAWA",
        "latitude": 45.293911,
        "longitude": -75.931998
    },
    {
        "region": "CA",
        "id": 20068,
        "name": "AirportKia",
        "latitude": 43.7105951,
        "longitude": -79.6352948
    },
    {
        "region": "CA",
        "id": 20069,
        "name": "Acura2000",
        "latitude": 43.73562,
        "longitude": -79.70558799999999
    },
    {
        "region": "CA",
        "id": 20070,
        "name": "EastsideGM",
        "latitude": 43.8487765,
        "longitude": -79.35766989999999
    },
    {
        "region": "CA",
        "id": 20073,
        "name": "TheBMWStoreVancouver",
        "latitude": 49.2674125,
        "longitude": -123.1453512
    },
    {
        "region": "CA",
        "id": 20074,
        "name": "WaterlooHonda",
        "latitude": 43.4986934,
        "longitude": -80.5307409
    },
    {
        "region": "CA",
        "id": 20075,
        "name": "MINIYaletownVancouver",
        "latitude": 49.27659380000001,
        "longitude": -123.120103
    },
    {
        "region": "CA",
        "id": 20076,
        "name": "NiagaraChrysler",
        "latitude": 43.109566,
        "longitude": -79.09899639999999
    },
    {
        "region": "CA",
        "id": 20077,
        "name": "WhiteRockHyundaiBC",
        "latitude": 49.0594386,
        "longitude": -122.8105926
    },
    {
        "region": "CA",
        "id": 20078,
        "name": "WoodbridgeToyota",
        "latitude": 43.7746167,
        "longitude": -79.6090835
    },
    {
        "region": "CA",
        "id": 20079,
        "name": "BMWWestIslandDORVAL",
        "latitude": 46.4441545,
        "longitude": -71.76578169999999
    },
    {
        "region": "CA",
        "id": 20080,
        "name": "CadillacdeLAVAL",
        "latitude": 45.5697221,
        "longitude": -73.7667312
    },
    {
        "region": "CA",
        "id": 20081,
        "name": "MississaugaSuzuki",
        "latitude": 43.5282975,
        "longitude": -79.67821219999999
    },
    {
        "region": "CA",
        "id": 20082,
        "name": "BourassaChevroletLAVAL",
        "latitude": 45.5921982,
        "longitude": -73.6947552
    },
    {
        "region": "CA",
        "id": 20083,
        "name": "AutoParkBrampton",
        "latitude": 43.70133269999999,
        "longitude": -79.7431098
    },
    {
        "region": "CA",
        "id": 20084,
        "name": "OpenRoadInfiniti",
        "latitude": 49.1115798,
        "longitude": -122.6489387
    },
    {
        "region": "CA",
        "id": 20085,
        "name": "Mercedes Benz Nanaimo BC",
        "latitude": 49.2028048,
        "longitude": -124.0014192
    },
    {
        "region": "CA",
        "id": 20086,
        "name": "StEustacheToyotaMONTREAL",
        "latitude": 45.5758629,
        "longitude": -73.89167429999999
    },
    {
        "region": "CA",
        "id": 20087,
        "name": "SupremAutomobileSHERBROOKE",
        "latitude": 45.375298,
        "longitude": -71.9808692
    },
    {
        "region": "CA",
        "id": 20089,
        "name": "TrentValleyHonda",
        "latitude": 44.273734,
        "longitude": -78.31699429999999
    },
    {
        "region": "CA",
        "id": 20090,
        "name": "HeffnerLexus",
        "latitude": 43.426392,
        "longitude": -80.42570359999999
    },
    {
        "region": "CA",
        "id": 20091,
        "name": "HeffnerToyota",
        "latitude": 43.4264654,
        "longitude": -80.4259194
    },
    {
        "region": "CA",
        "id": 20098,
        "name": "VolkswagenWATERLOO",
        "latitude": 43.4933256,
        "longitude": -80.54513419999999
    },
    {
        "region": "CA",
        "id": 20099,
        "name": "MyersHyundaiOTTAWA",
        "latitude": 45.32005909999999,
        "longitude": -75.83818839999999
    },
    {
        "region": "CA",
        "id": 20100,
        "name": "AcuraSherwayToronto",
        "latitude": 43.6131028,
        "longitude": -79.561973
    },
    {
        "region": "CA",
        "id": 20101,
        "name": "Hull Nissan QUEBEC",
        "latitude": 45.4676081,
        "longitude": -75.7386258
    },
    {
        "region": "CA",
        "id": 20103,
        "name": "WoodstockFord",
        "latitude": 43.1383619,
        "longitude": -80.7046008
    },
    {
        "region": "CA",
        "id": 20109,
        "name": "ApplewoodKia",
        "latitude": 49.1543405,
        "longitude": -122.7709137
    },
    {
        "region": "CA",
        "id": 20110,
        "name": "PickeringVWOntario",
        "latitude": 43.81353800000001,
        "longitude": -79.1229066
    },
    {
        "region": "CA",
        "id": 20111,
        "name": "ReaumeChevBuickGMC",
        "latitude": 42.241408,
        "longitude": -83.1016403
    },
    {
        "region": "CA",
        "id": 20115,
        "name": "MississaugaSubaru",
        "latitude": 43.6154235,
        "longitude": -79.700768
    },
    {
        "region": "CA",
        "id": 20117,
        "name": "ApplewoodChevBuickGMC",
        "latitude": 43.5268373,
        "longitude": -79.6782743
    },
    {
        "region": "CA",
        "id": 20120,
        "name": "StreetsvilleHyundai",
        "latitude": 43.5925354,
        "longitude": -79.7277003
    },
    {
        "region": "CA",
        "id": 20124,
        "name": "GuelphInfinitiNissan",
        "latitude": 43.5144106,
        "longitude": -80.28404789999999
    },
    {
        "region": "CA",
        "id": 20131,
        "name": "NthGenUSTest",
        "latitude": 28.553728,
        "longitude": -81.429231
    },
    {
        "region": "CA",
        "id": 20132,
        "name": "WoodStockHyundai",
        "latitude": 43.1343853,
        "longitude": -80.7269488
    },
    {
        "region": "CA",
        "id": 20133,
        "name": "PrecisionHyundaiCalgary",
        "latitude": 50.98802920000001,
        "longitude": -114.0317935
    },
    {
        "region": "CA",
        "id": 20134,
        "name": "DiscoveryHonda",
        "latitude": 48.80338589999999,
        "longitude": -123.7158556
    },
    {
        "region": "CA",
        "id": 20135,
        "name": "SubaruofNanaimo",
        "latitude": 49.2028048,
        "longitude": -124.0014192
    },
    {
        "region": "CA",
        "id": 20136,
        "name": "SarniaFineCarsBMW",
        "latitude": 42.9607177,
        "longitude": -82.3812363
    },
    {
        "region": "CA",
        "id": 20137,
        "name": "PorscheOfLondon",
        "latitude": 42.9834842,
        "longitude": -81.2935664
    },
    {
        "region": "CA",
        "id": 20138,
        "name": "LeavensVolkswagenLondon",
        "latitude": 43.0006574,
        "longitude": -81.194901
    },
    {
        "region": "CA",
        "id": 20139,
        "name": "FairviewAcura",
        "latitude": 43.4786624,
        "longitude": -80.4289847
    },
    {
        "region": "CA",
        "id": 20140,
        "name": "KitchenerHonda",
        "latitude": 43.41804399999999,
        "longitude": -80.4082384
    },
    {
        "region": "CA",
        "id": 20142,
        "name": "DowntownSubaruTORONTO",
        "latitude": 43.65887180000001,
        "longitude": -79.3364448
    },
    {
        "region": "CA",
        "id": 20144,
        "name": "HJPfaffMotorsVWNewmarket",
        "latitude": 44.0496816,
        "longitude": -79.4273899
    },
    {
        "region": "CA",
        "id": 20145,
        "name": "ArnpriorChryslerOTTAWA",
        "latitude": 45.43187040000001,
        "longitude": -76.3427567
    },
    {
        "region": "CA",
        "id": 20146,
        "name": "AutolineToyotaNiagaraFalls",
        "latitude": 43.1153422,
        "longitude": -79.0958453
    },
    {
        "region": "CA",
        "id": 20147,
        "name": "KitchenerNissan",
        "latitude": 43.4266851,
        "longitude": -80.4265405
    },
    {
        "region": "CA",
        "id": 20148,
        "name": "DowntownHyundaiToronto",
        "latitude": 43.6567044,
        "longitude": -79.3488885
    },
    {
        "region": "CA",
        "id": 20149,
        "name": "FinchChevroletCadillacBuickGMC",
        "latitude": 42.9821428,
        "longitude": -81.29235039999999
    },
    {
        "region": "CA",
        "id": 20150,
        "name": "HondaWestCalgary",
        "latitude": 51.0217399,
        "longitude": -114.1625458
    },
    {
        "region": "CA",
        "id": 20151,
        "name": "StarMotorsOTTAWA",
        "latitude": 45.3367166,
        "longitude": -75.7194051
    },
    {
        "region": "CA",
        "id": 20153,
        "name": "SubaruGRANBY",
        "latitude": 45.4215005,
        "longitude": -72.78307869999999
    },
    {
        "region": "CA",
        "id": 20156,
        "name": "DestinationToyotaBurnaby",
        "latitude": 49.2617907,
        "longitude": -123.0047323
    },
    {
        "region": "CA",
        "id": 20157,
        "name": "AudiCentreOakville",
        "latitude": 43.4298309,
        "longitude": -79.719634
    },
    {
        "region": "CA",
        "id": 20158,
        "name": "LeggatChevroletBuickCadillacBurlington",
        "latitude": 43.336301,
        "longitude": -79.8123849
    },
    {
        "region": "CA",
        "id": 20160,
        "name": "BaySubaruBELLEVILLE",
        "latitude": 44.1907067,
        "longitude": -77.41070119999999
    },
    {
        "region": "CA",
        "id": 20161,
        "name": "JimThompsonChrysler",
        "latitude": 44.2522959,
        "longitude": -76.5685833
    },
    {
        "region": "CA",
        "id": 20162,
        "name": "BurlingtonMazda",
        "latitude": 43.3628277,
        "longitude": -79.7830232
    },
    {
        "region": "CA",
        "id": 20164,
        "name": "BuddsBMW",
        "latitude": 43.4098459,
        "longitude": -79.73636359999999
    },
    {
        "region": "CA",
        "id": 20166,
        "name": "TrentoMitsubishiTORONTO",
        "latitude": 43.7682107,
        "longitude": -79.5565889
    },
    {
        "region": "CA",
        "id": 20168,
        "name": "GeorgetownToyota",
        "latitude": 43.6497319,
        "longitude": -79.89350429999999
    },
    {
        "region": "CA",
        "id": 20169,
        "name": "KINGSTONNissan",
        "latitude": 44.2515953,
        "longitude": -76.5672678
    },
    {
        "region": "CA",
        "id": 20170,
        "name": "BMWMiniNanaimo",
        "latitude": 49.2037475,
        "longitude": -124.0035653
    },
    {
        "region": "CA",
        "id": 20172,
        "name": "BrianMcleanChevroletBuickGMCltd",
        "latitude": 49.6801173,
        "longitude": -124.9846965
    },
    {
        "region": "CA",
        "id": 20173,
        "name": "PioneerChryslerJeepBC",
        "latitude": 49.1342389,
        "longitude": -122.3015277
    },
    {
        "region": "CA",
        "id": 20175,
        "name": "JamesBradenFordKINGSTON",
        "latitude": 44.237543,
        "longitude": -76.57992689999999
    },
    {
        "region": "CA",
        "id": 20176,
        "name": "Kanata Toyota OTTAWA",
        "latitude": 45.2948128,
        "longitude": -75.9336679
    },
    {
        "region": "CA",
        "id": 20177,
        "name": "TyeeChevroletBuickGMCBC",
        "latitude": 50.0278366,
        "longitude": -125.2484599
    },
    {
        "region": "CA",
        "id": 20178,
        "name": "LangeandFetterFordTRENTON",
        "latitude": 44.1048108,
        "longitude": -77.5718534
    },
    {
        "region": "CA",
        "id": 20179,
        "name": "MetrotownMitsubishi",
        "latitude": 49.2215512,
        "longitude": -122.9773269
    },
    {
        "region": "CA",
        "id": 20181,
        "name": "MyersCadillacOTTAWA",
        "latitude": 45.3654332,
        "longitude": -75.7303003
    },
    {
        "region": "CA",
        "id": 20182,
        "name": "FinchHyundai",
        "latitude": 42.9414052,
        "longitude": -81.2523265
    },
    {
        "region": "CA",
        "id": 20183,
        "name": "MercedesBenzLondon",
        "latitude": 42.9408888,
        "longitude": -81.25582969999999
    },
    {
        "region": "CA",
        "id": 20184,
        "name": "TricityMitsubishi",
        "latitude": 49.2650827,
        "longitude": -122.7741082
    },
    {
        "region": "CA",
        "id": 20186,
        "name": "TheHumberviewGroupAutoParkBarrie",
        "latitude": 44.3017516,
        "longitude": -79.6811263
    },
    {
        "region": "CA",
        "id": 20187,
        "name": "VolvoJaguarLandRoverofWaterloo",
        "latitude": 43.4979654,
        "longitude": -80.53083749999999
    },
    {
        "region": "CA",
        "id": 20188,
        "name": "CarterHondaBC",
        "latitude": 49.2648204,
        "longitude": -123.1455203
    },
    {
        "region": "CA",
        "id": 20189,
        "name": "ReadyHonda",
        "latitude": 43.58886020000001,
        "longitude": -79.6055098
    },
    {
        "region": "CA",
        "id": 20190,
        "name": "Canarino Nissan",
        "latitude": 46.2856369,
        "longitude": -79.4499179
    },
    {
        "region": "CA",
        "id": 20191,
        "name": "WilsonNiblett",
        "latitude": 43.8878152,
        "longitude": -79.44006159999999
    },
    {
        "region": "CA",
        "id": 20192,
        "name": "MarvJonesHondaBC",
        "latitude": 49.218501,
        "longitude": -122.6497958
    },
    {
        "region": "CA",
        "id": 20193,
        "name": "Northbaychrysler",
        "latitude": 46.2807564,
        "longitude": -79.4467458
    },
    {
        "region": "CA",
        "id": 20194,
        "name": "WestCoastToyotaBC",
        "latitude": 49.2230072,
        "longitude": -122.6691927
    },
    {
        "region": "CA",
        "id": 20195,
        "name": "WestCoastMazda",
        "latitude": 49.2222096,
        "longitude": -122.6669882
    },
    {
        "region": "CA",
        "id": 20197,
        "name": "StCatharinesMazda",
        "latitude": 43.1824008,
        "longitude": -79.24980719999999
    },
    {
        "region": "CA",
        "id": 20198,
        "name": "MercedesBenzKINGSTON",
        "latitude": 44.2376784,
        "longitude": -76.5532109
    },
    {
        "region": "CA",
        "id": 20199,
        "name": "KitchenerFord",
        "latitude": 43.4412212,
        "longitude": -80.4723152
    },
    {
        "region": "CA",
        "id": 20201,
        "name": "DestinationMazda",
        "latitude": 49.27048600000001,
        "longitude": -123.023829
    },
    {
        "region": "CA",
        "id": 20202,
        "name": "Kingstonhyundai",
        "latitude": 44.2389758,
        "longitude": -76.5378113
    },
    {
        "region": "CA",
        "id": 20203,
        "name": "MyersNissanORLEANS",
        "latitude": 45.4656106,
        "longitude": -75.5478985
    },
    {
        "region": "CA",
        "id": 20204,
        "name": "AttrellToyotaBRAMPTON",
        "latitude": 43.7015089,
        "longitude": -79.79468609999999
    },
    {
        "region": "CA",
        "id": 20205,
        "name": "TaylorChevroletAutomallKINGSTON",
        "latitude": 44.258466,
        "longitude": -76.55851299999999
    },
    {
        "region": "CA",
        "id": 20206,
        "name": "BayviewAutoSalesBELLEVILLE",
        "latitude": 44.2026439,
        "longitude": -77.4029616
    },
    {
        "region": "CA",
        "id": 20207,
        "name": "RichmondAcura",
        "latitude": 49.1830584,
        "longitude": -123.1367486
    },
    {
        "region": "CA",
        "id": 20208,
        "name": "BillSpencerChevroletCOBOURG",
        "latitude": 43.9708495,
        "longitude": -78.2017005
    },
    {
        "region": "CA",
        "id": 20210,
        "name": "West Coast Nissan",
        "latitude": 49.2263159,
        "longitude": -122.6771483
    },
    {
        "region": "CA",
        "id": 20211,
        "name": "AlberniToyota",
        "latitude": 49.2638045,
        "longitude": -124.7629149
    },
    {
        "region": "CA",
        "id": 20212,
        "name": "AlberniChrysler",
        "latitude": 49.2633968,
        "longitude": -124.7622178
    },
    {
        "region": "CA",
        "id": 20214,
        "name": "WoodchesterNissan",
        "latitude": 43.5291472,
        "longitude": -79.678153
    },
    {
        "region": "CA",
        "id": 20215,
        "name": "BoulevardToyotaQUEBECDBA4488601CanadaInc",
        "latitude": 46.8326254,
        "longitude": -71.2709917
    },
    {
        "region": "CA",
        "id": 20216,
        "name": "MyersChevroletORLEANS",
        "latitude": 45.46256750000001,
        "longitude": -75.54444939999999
    },
    {
        "region": "CA",
        "id": 20217,
        "name": "CampbellfordChrysler",
        "latitude": 44.287417,
        "longitude": -77.80962219999999
    },
    {
        "region": "CA",
        "id": 20218,
        "name": "VancouverHonda",
        "latitude": 49.2057836,
        "longitude": -123.1265617
    },
    {
        "region": "CA",
        "id": 20220,
        "name": "IdealHondaMISSISSAUGA",
        "latitude": 43.6435866,
        "longitude": -79.6342026
    },
    {
        "region": "CA",
        "id": 20221,
        "name": "MeadowvaleToyotaMISSISSAUGA",
        "latitude": 43.598869,
        "longitude": -79.7818147
    },
    {
        "region": "CA",
        "id": 20222,
        "name": "JimPattisonVolkswagenSurrey",
        "latitude": 49.1959408,
        "longitude": -122.7966177
    },
    {
        "region": "CA",
        "id": 20223,
        "name": "WestCoastFordLincoln",
        "latitude": 49.2191716,
        "longitude": -122.6576379
    },
    {
        "region": "CA",
        "id": 20224,
        "name": "Gananoquechevrolet",
        "latitude": 44.3335857,
        "longitude": -76.15575749999999
    },
    {
        "region": "CA",
        "id": 20226,
        "name": "LexusofRichmondHillON",
        "latitude": 43.9086057,
        "longitude": -79.4461906
    },
    {
        "region": "CA",
        "id": 20227,
        "name": "KINGSTONVolkswagenandAudi",
        "latitude": 44.2374041,
        "longitude": -76.5692969
    },
    {
        "region": "CA",
        "id": 20228,
        "name": "DeuxRivesChryslerQUEBEC",
        "latitude": 46.0198743,
        "longitude": -73.07427559999999
    },
    {
        "region": "CA",
        "id": 20230,
        "name": "ParkAvenueAudiBROSSARD",
        "latitude": 45.4318651,
        "longitude": -73.4786614
    },
    {
        "region": "CA",
        "id": 20232,
        "name": "ParkAvenueInfinitiBROSSARD",
        "latitude": 45.4406575,
        "longitude": -73.4728867
    },
    {
        "region": "CA",
        "id": 20233,
        "name": "ParkAvenueBMWBROSSARD",
        "latitude": 45.4384518,
        "longitude": -73.4749346
    },
    {
        "region": "CA",
        "id": 20234,
        "name": "MiniBrossardQuebec",
        "latitude": 45.4353497,
        "longitude": -73.47638119999999
    },
    {
        "region": "CA",
        "id": 20235,
        "name": "OccasionParkAvenueLAPRAIRIE",
        "latitude": 45.417735,
        "longitude": -73.4878727
    },
    {
        "region": "CA",
        "id": 20236,
        "name": "ParkAvenueToyotaBROSSARD",
        "latitude": 45.4403667,
        "longitude": -73.4719981
    },
    {
        "region": "CA",
        "id": 20237,
        "name": "ParkAvenueLexusSTEJULIE",
        "latitude": 45.5789957,
        "longitude": -73.34146539999999
    },
    {
        "region": "CA",
        "id": 20238,
        "name": "ParkAvenueHondaBROSSARD",
        "latitude": 45.4680774,
        "longitude": -73.4677361
    },
    {
        "region": "CA",
        "id": 20240,
        "name": "ParkAvenueVolkswagenBROSSARD",
        "latitude": 45.439365,
        "longitude": -73.4740322
    },
    {
        "region": "CA",
        "id": 20241,
        "name": "BMWSAINTEJULIE",
        "latitude": 45.5792782,
        "longitude": -73.3400989
    },
    {
        "region": "CA",
        "id": 20242,
        "name": "LallySouthpointFord",
        "latitude": 42.0609685,
        "longitude": -82.6240329
    },
    {
        "region": "CA",
        "id": 20243,
        "name": "LallyFordTilbury",
        "latitude": 42.2634446,
        "longitude": -82.4462487
    },
    {
        "region": "CA",
        "id": 20244,
        "name": "NorthwestToyota",
        "latitude": 43.7464811,
        "longitude": -79.69380989999999
    },
    {
        "region": "CA",
        "id": 20245,
        "name": "ChiassonFord",
        "latitude": 44.3370575,
        "longitude": -76.1690875
    },
    {
        "region": "CA",
        "id": 20246,
        "name": "Belangerchrysler",
        "latitude": 45.558055,
        "longitude": -75.2507068
    },
    {
        "region": "CA",
        "id": 20248,
        "name": "Haley Dodge BC",
        "latitude": 49.0576237,
        "longitude": -122.807728
    },
    {
        "region": "CA",
        "id": 20250,
        "name": "BOLTONGM",
        "latitude": 43.8908814,
        "longitude": -79.7519919
    },
    {
        "region": "CA",
        "id": 20251,
        "name": "BarnesWheatonGMNorthSurreyBC",
        "latitude": 49.19142040000001,
        "longitude": -122.8006851
    },
    {
        "region": "CA",
        "id": 20252,
        "name": "VictoryFordLincoln",
        "latitude": 42.3950956,
        "longitude": -82.19257069999999
    },
    {
        "region": "CA",
        "id": 20253,
        "name": "LallyKia",
        "latitude": 42.38595309999999,
        "longitude": -82.20708669999999
    },
    {
        "region": "CA",
        "id": 20254,
        "name": "WestCoastKiaBC",
        "latitude": 49.2222756,
        "longitude": -122.6681501
    },
    {
        "region": "CA",
        "id": 20255,
        "name": "BenceFord",
        "latitude": 44.6367232,
        "longitude": -77.13590429999999
    },
    {
        "region": "CA",
        "id": 20256,
        "name": "ArrowMotorSalesLtdBC",
        "latitude": 49.5317478,
        "longitude": -115.7450143
    },
    {
        "region": "CA",
        "id": 20257,
        "name": "KiaOfBROCKVILLE",
        "latitude": 44.6058837,
        "longitude": -75.7209302
    },
    {
        "region": "CA",
        "id": 20258,
        "name": "LaSalleFord",
        "latitude": 45.4423657,
        "longitude": -73.61802829999999
    },
    {
        "region": "CA",
        "id": 20259,
        "name": "BarnesHarleyDavidsonBC",
        "latitude": 49.1624235,
        "longitude": -122.6670526
    },
    {
        "region": "CA",
        "id": 20260,
        "name": "Dixons'sCarandTruckRental",
        "latitude": 44.6058837,
        "longitude": -75.7209302
    },
    {
        "region": "CA",
        "id": 20261,
        "name": "KeyWestFordSalesLtd",
        "latitude": 49.2023676,
        "longitude": -122.9264054
    },
    {
        "region": "CA",
        "id": 20262,
        "name": "MapleRidgeChryslerBC",
        "latitude": 49.2192829,
        "longitude": -122.665157
    },
    {
        "region": "CA",
        "id": 20263,
        "name": "DOW Honda OTTAWA",
        "latitude": 45.3412275,
        "longitude": -75.7238677
    },
    {
        "region": "CA",
        "id": 20264,
        "name": "DiscountCarandTruckRentals",
        "latitude": 43.7476591,
        "longitude": -79.53047049999999
    },
    {
        "region": "CA",
        "id": 20265,
        "name": "TrentoKia",
        "latitude": 43.7677842,
        "longitude": -79.5565833
    },
    {
        "region": "CA",
        "id": 20266,
        "name": "NiagaraMotors",
        "latitude": 43.2196469,
        "longitude": -79.1214455
    },
    {
        "region": "CA",
        "id": 20267,
        "name": "SerpaBMW",
        "latitude": 44.0376141,
        "longitude": -79.4702683
    },
    {
        "region": "CA",
        "id": 20268,
        "name": "SeawayhyundaiCORNWALL",
        "latitude": 45.0272988,
        "longitude": -74.75265279999999
    },
    {
        "region": "CA",
        "id": 20269,
        "name": "CowellMotorsLtd",
        "latitude": 49.1723586,
        "longitude": -123.0777312
    },
    {
        "region": "CA",
        "id": 20270,
        "name": "MississaugaToyota",
        "latitude": 43.6266854,
        "longitude": -79.5649158
    },
    {
        "region": "CA",
        "id": 20272,
        "name": "ColumbiaChryslerDodgeJeepBC",
        "latitude": 49.17211349999999,
        "longitude": -123.140192
    },
    {
        "region": "CA",
        "id": 20273,
        "name": "401DixieVWMISSISSAUGA",
        "latitude": 43.6455518,
        "longitude": -79.63695729999999
    },
    {
        "region": "CA",
        "id": 20276,
        "name": "ChasseToyota",
        "latitude": 45.5239442,
        "longitude": -73.5764023
    },
    {
        "region": "CA",
        "id": 20277,
        "name": "DecarieMotorsInc",
        "latitude": 45.5003648,
        "longitude": -73.66118689999999
    },
    {
        "region": "CA",
        "id": 20278,
        "name": "NewmarketMitsubishi",
        "latitude": 44.03908680000001,
        "longitude": -79.4640264
    },
    {
        "region": "CA",
        "id": 20279,
        "name": "NewmarketVolvo",
        "latitude": 44.03908680000001,
        "longitude": -79.4640264
    },
    {
        "region": "CA",
        "id": 20281,
        "name": "BrownBrosMotorLeaseCanadaLtdBC",
        "latitude": 49.2108299,
        "longitude": -123.1014684
    },
    {
        "region": "CA",
        "id": 20282,
        "name": "SomervilleNationalLeasingandRentalsLTD",
        "latitude": 43.7406055,
        "longitude": -79.53053179999999
    },
    {
        "region": "CA",
        "id": 20283,
        "name": "DonDocksteaderMotorsLtd",
        "latitude": 49.208002,
        "longitude": -123.1167179
    },
    {
        "region": "CA",
        "id": 20284,
        "name": "NissanGabrielJean-Talon(CiteNissanGabrielS.E.C.)",
        "latitude": 45.5064909,
        "longitude": -73.6390469
    },
    {
        "region": "CA",
        "id": 20285,
        "name": "SurgenorBarrhavenChevroletBuickGMC",
        "latitude": 45.2512778,
        "longitude": -75.7104093
    },
    {
        "region": "CA",
        "id": 20286,
        "name": "TriStarMercedes-Benz",
        "latitude": 45.3002671,
        "longitude": -66.03684059999999
    },
    {
        "region": "CA",
        "id": 20287,
        "name": "HondaDRUMMONDVILLE",
        "latitude": 45.8848985,
        "longitude": -72.5005895
    },
    {
        "region": "CA",
        "id": 20288,
        "name": "MazdaDRUMMONDVILLE",
        "latitude": 45.8857393,
        "longitude": -72.5019638
    },
    {
        "region": "CA",
        "id": 20290,
        "name": "ValleyfieldToyota",
        "latitude": 45.273301,
        "longitude": -74.09117839999999
    },
    {
        "region": "CA",
        "id": 20291,
        "name": "RollsRoyceMotorCarsQUEBEC",
        "latitude": 45.5006352,
        "longitude": -73.66125880000001
    },
    {
        "region": "CA",
        "id": 20293,
        "name": "BrianCullenMotorsLTD",
        "latitude": 43.1740722,
        "longitude": -79.26580419999999
    },
    {
        "region": "CA",
        "id": 20294,
        "name": "MiltonToyota",
        "latitude": 43.5434346,
        "longitude": -79.87072119999999
    },
    {
        "region": "CA",
        "id": 20296,
        "name": "CYVChevroletBuickGMC",
        "latitude": 46.1636715,
        "longitude": -67.5947425
    },
    {
        "region": "CA",
        "id": 20297,
        "name": "TAudiTestDealer",
        "latitude": 43.6613768,
        "longitude": -79.3382673
    },
    {
        "region": "CA",
        "id": 20298,
        "name": "CooksvilleHyundaiDivofHumberviewGroup",
        "latitude": 43.5867469,
        "longitude": -79.6089004
    },
    {
        "region": "CA",
        "id": 20299,
        "name": "CooksvilleDodgeChryslerJeepDivofHumberviewGroup",
        "latitude": 43.5865266,
        "longitude": -79.609155
    },
    {
        "region": "CA",
        "id": 20301,
        "name": "MillsMotorsBuickGMC",
        "latitude": 43.90397950000001,
        "longitude": -78.8369283
    },
    {
        "region": "CA",
        "id": 20302,
        "name": "NationalAutoFinanceandLeasing",
        "latitude": 45.3312692,
        "longitude": -75.7249859
    },
    {
        "region": "CA",
        "id": 20303,
        "name": "OrilliaHyundai",
        "latitude": 44.6387002,
        "longitude": -79.42462429999999
    },
    {
        "region": "CA",
        "id": 20304,
        "name": "JimPattisonToyotaNorthshore",
        "latitude": 49.316219,
        "longitude": -123.0967062
    },
    {
        "region": "CA",
        "id": 20305,
        "name": "DestinationHonda",
        "latitude": 49.266057,
        "longitude": -123.009265
    },
    {
        "region": "CA",
        "id": 20307,
        "name": "Haut-RichelieuVolkswagen",
        "latitude": 45.33370000000001,
        "longitude": -73.2856
    },
    {
        "region": "CA",
        "id": 20308,
        "name": "MidwayMazda",
        "latitude": 49.0582825,
        "longitude": -122.8089933
    },
    {
        "region": "CA",
        "id": 20309,
        "name": "AlbileGeantInc",
        "latitude": 45.7375023,
        "longitude": -73.5918111
    },
    {
        "region": "CA",
        "id": 20310,
        "name": "HolandLeasing",
        "latitude": 45.50162359999999,
        "longitude": -73.6631733
    },
    {
        "region": "CA",
        "id": 20312,
        "name": "DestinationChryslerJeepDodgeNorthshore",
        "latitude": 49.324203,
        "longitude": -123.1170275
    },
    {
        "region": "CA",
        "id": 20313,
        "name": "MercedesBenzSherbrooke-GroupeBeaucage",
        "latitude": 45.3729628,
        "longitude": -71.9855084
    },
    {
        "region": "CA",
        "id": 20314,
        "name": "DixieChryslerDodgeJeep",
        "latitude": 43.69912160000001,
        "longitude": -79.7089112
    },
    {
        "region": "CA",
        "id": 20315,
        "name": "ChevroletBuickGMCdeLasalle",
        "latitude": 45.4350304,
        "longitude": -73.6263063
    },
    {
        "region": "CA",
        "id": 20316,
        "name": "Number7Honda",
        "latitude": 43.7766559,
        "longitude": -79.6054747
    },
    {
        "region": "CA",
        "id": 20317,
        "name": "MetroMotorsLtd.Ford",
        "latitude": 49.270436,
        "longitude": -122.7825913
    },
    {
        "region": "CA",
        "id": 20318,
        "name": "GATINEAUHonda",
        "latitude": 45.4888938,
        "longitude": -75.7068449
    },
    {
        "region": "CA",
        "id": 20319,
        "name": "WheatonChevroletBuickCadillacGMCltd",
        "latitude": 48.4409759,
        "longitude": -123.3683383
    },
    {
        "region": "CA",
        "id": 20320,
        "name": "OceansideChevroletLtd",
        "latitude": 49.3182414,
        "longitude": -124.2984381
    },
    {
        "region": "CA",
        "id": 20322,
        "name": "JimPattisonVolvoofSurrey",
        "latitude": 49.1957726,
        "longitude": -122.7960317
    },
    {
        "region": "CA",
        "id": 20323,
        "name": "CapitaleChryslerQuebec",
        "latitude": 46.8312171,
        "longitude": -71.2748422
    },
    {
        "region": "CA",
        "id": 20324,
        "name": "Ste-FoyChrysler",
        "latitude": 46.7954022,
        "longitude": -71.2715946
    },
    {
        "region": "CA",
        "id": 20325,
        "name": "AudiDowntownVancouver",
        "latitude": 49.2695034,
        "longitude": -123.1452427
    },
    {
        "region": "CA",
        "id": 20328,
        "name": "OverseasBMW",
        "latitude": 42.3143273,
        "longitude": -82.9250639
    },
    {
        "region": "CA",
        "id": 20329,
        "name": "SurreyHonda",
        "latitude": 49.16479229999999,
        "longitude": -122.7980371
    },
    {
        "region": "CA",
        "id": 20331,
        "name": "DorvalKia",
        "latitude": 45.457089,
        "longitude": -73.72968159999999
    },
    {
        "region": "CA",
        "id": 20335,
        "name": "AvenueNissanToronto",
        "latitude": 43.7266118,
        "longitude": -79.41735779999999
    },
    {
        "region": "CA",
        "id": 20336,
        "name": "SilverstarMontreal",
        "latitude": 45.4965264,
        "longitude": -73.6575153
    },
    {
        "region": "CA",
        "id": 20337,
        "name": "Richmond Hill Toyota",
        "latitude": 43.9008519,
        "longitude": -79.4453856
    },
    {
        "region": "CA",
        "id": 20338,
        "name": "HamiltonVolvo",
        "latitude": 43.2033018,
        "longitude": -79.8965753
    },
    {
        "region": "CA",
        "id": 20339,
        "name": "PfaffHallmarkToyotaORANGEVILLE",
        "latitude": 43.9268382,
        "longitude": -80.06496419999999
    },
    {
        "region": "CA",
        "id": 20341,
        "name": "BustardChryslerDodgeJeepWATERLOODBABustardBrothersLTD",
        "latitude": 43.4998489,
        "longitude": -80.5256981
    },
    {
        "region": "CA",
        "id": 20342,
        "name": "LavalVolkswagen",
        "latitude": 46.803494,
        "longitude": -71.24427299999999
    },
    {
        "region": "CA",
        "id": 20343,
        "name": "AgincourtHyundai",
        "latitude": 43.8201015,
        "longitude": -79.2461862
    },
    {
        "region": "CA",
        "id": 20344,
        "name": "VandermeerToyotaCobourg",
        "latitude": 43.9589914,
        "longitude": -78.16374689999999
    },
    {
        "region": "CA",
        "id": 20345,
        "name": "ChomedeyHyundai",
        "latitude": 45.5604575,
        "longitude": -73.770928
    },
    {
        "region": "CA",
        "id": 20346,
        "name": "GeorgianBMWMiniGeorgian",
        "latitude": 44.360359,
        "longitude": -79.6973816
    },
    {
        "region": "CA",
        "id": 20348,
        "name": "LocationClaireviewLeasing",
        "latitude": 45.4956932,
        "longitude": -73.66467519999999
    },
    {
        "region": "CA",
        "id": 20349,
        "name": "ProgressiveFord",
        "latitude": 42.58009759999999,
        "longitude": -82.3840072
    },
    {
        "region": "CA",
        "id": 20351,
        "name": "DesjardinsFordSt-Laurent",
        "latitude": 45.51111359999999,
        "longitude": -73.69035110000002
    },
    {
        "region": "CA",
        "id": 20354,
        "name": "HUNTSVILLEHonda",
        "latitude": 45.3404394,
        "longitude": -79.221047
    },
    {
        "region": "CA",
        "id": 20355,
        "name": "ArmstrongDodgeHUNTSVILLE",
        "latitude": 45.32096869999999,
        "longitude": -79.2331432
    },
    {
        "region": "CA",
        "id": 20356,
        "name": "HyundaiofMuskoka",
        "latitude": 45.331034,
        "longitude": -79.20981909999999
    },
    {
        "region": "CA",
        "id": 20358,
        "name": "MagnusonFordSalesLimited",
        "latitude": 49.0512103,
        "longitude": -122.3223889
    },
    {
        "region": "CA",
        "id": 20359,
        "name": "Ste-FoyToyotaQuebec",
        "latitude": 46.7835958,
        "longitude": -71.3083496
    },
    {
        "region": "CA",
        "id": 20362,
        "name": "CardinalKia",
        "latitude": 43.0510029,
        "longitude": -79.12144579999999
    },
    {
        "region": "CA",
        "id": 20364,
        "name": "KiaSt-Hyacinthe",
        "latitude": 45.6412304,
        "longitude": -72.9638394
    },
    {
        "region": "CA",
        "id": 20365,
        "name": "BennettChevroletCadillacGMC",
        "latitude": 43.3971123,
        "longitude": -80.3244303
    },
    {
        "region": "CA",
        "id": 20366,
        "name": "JimWilsonChevroletBuickGMCORILLIA",
        "latitude": 44.5945472,
        "longitude": -79.4243372
    },
    {
        "region": "CA",
        "id": 20368,
        "name": "ScarboroughToyota",
        "latitude": 43.7254424,
        "longitude": -79.29464229999999
    },
    {
        "region": "CA",
        "id": 20371,
        "name": "VolvoofOakville",
        "latitude": 43.4136728,
        "longitude": -79.7357315
    },
    {
        "region": "CA",
        "id": 20372,
        "name": "ClarkdaleMotorsVolkswagen",
        "latitude": 49.24254089999999,
        "longitude": -123.1018455
    },
    {
        "region": "CA",
        "id": 20374,
        "name": "AbbotsfordNissanLtd2",
        "latitude": 49.06167,
        "longitude": -122.386923
    },
    {
        "region": "CA",
        "id": 20375,
        "name": "BannisterHonda",
        "latitude": 50.3102805,
        "longitude": -119.2487327
    },
    {
        "region": "CA",
        "id": 20376,
        "name": "FordLincolnGabriel(FordLincolnGabrielS.E.C.)",
        "latitude": 45.45518999999999,
        "longitude": -73.630673
    },
    {
        "region": "CA",
        "id": 20377,
        "name": "CLARINGTONToyota",
        "latitude": 43.89600009999999,
        "longitude": -78.6926124
    },
    {
        "region": "CA",
        "id": 20378,
        "name": "AcuraSainteJulie",
        "latitude": 45.5785052,
        "longitude": -73.3428289
    },
    {
        "region": "CA",
        "id": 20379,
        "name": "AcuraBrossard",
        "latitude": 45.4389466,
        "longitude": -73.47406409999999
    },
    {
        "region": "CA",
        "id": 20380,
        "name": "SubaruBrossard",
        "latitude": 45.4680774,
        "longitude": -73.4677361
    },
    {
        "region": "CA",
        "id": 20381,
        "name": "SubaruSainte-Julie",
        "latitude": 45.5787096,
        "longitude": -73.3435531
    },
    {
        "region": "CA",
        "id": 20382,
        "name": "MetroNissanLASALLE",
        "latitude": 45.476268,
        "longitude": -73.64920099999999
    },
    {
        "region": "CA",
        "id": 20383,
        "name": "VernonNissan",
        "latitude": 50.3005035,
        "longitude": -119.2530051
    },
    {
        "region": "CA",
        "id": 20384,
        "name": "uTestDealer1",
        "latitude": 43.7594325,
        "longitude": -79.4099967
    },
    {
        "region": "CA",
        "id": 20385,
        "name": "uTestDealer2",
        "latitude": 43.8630297,
        "longitude": -79.38415429999999
    },
    {
        "region": "CA",
        "id": 20388,
        "name": "LairdWheatonChevroletBuickCadillacGMC",
        "latitude": 49.2028439,
        "longitude": -124.001106
    },
    {
        "region": "CA",
        "id": 20389,
        "name": "ThornhillHyundai",
        "latitude": 43.8018928,
        "longitude": -79.421487
    },
    {
        "region": "CA",
        "id": 20390,
        "name": "JimPattisonHyundaiSurrey",
        "latitude": 49.19625869999999,
        "longitude": -122.7978345
    },
    {
        "region": "CA",
        "id": 20392,
        "name": "ArgusMazdaGATINEAU",
        "latitude": 45.4680397,
        "longitude": -75.7383176
    },
    {
        "region": "CA",
        "id": 20393,
        "name": "BramgateVolkswagen",
        "latitude": 43.6980539,
        "longitude": -79.74682519999999
    },
    {
        "region": "CA",
        "id": 20394,
        "name": "GuelphToyota",
        "latitude": 43.5386767,
        "longitude": -80.3135452
    },
    {
        "region": "CA",
        "id": 20396,
        "name": "VilleMarieKia",
        "latitude": 45.53994350000001,
        "longitude": -73.5554653
    },
    {
        "region": "CA",
        "id": 20397,
        "name": "MercedesBenzofREGINA",
        "latitude": 50.4670413,
        "longitude": -104.60532
    },
    {
        "region": "CA",
        "id": 20399,
        "name": "LexusofKelowna",
        "latitude": 49.8994423,
        "longitude": -119.4104463
    },
    {
        "region": "CA",
        "id": 20400,
        "name": "Mercedes-BenzHeritageValley",
        "latitude": 53.4150608,
        "longitude": -113.499739
    },
    {
        "region": "CA",
        "id": 20401,
        "name": "CranbrookKia",
        "latitude": 49.52212,
        "longitude": -115.7538823
    },
    {
        "region": "CA",
        "id": 20402,
        "name": "HyundaiOfGoderich",
        "latitude": 43.721794,
        "longitude": -81.70578760000001
    },
    {
        "region": "CA",
        "id": 20403,
        "name": "GoderichHonda",
        "latitude": 43.7304925,
        "longitude": -81.6898997
    },
    {
        "region": "CA",
        "id": 20405,
        "name": "Mercedes-BenzSurrey2",
        "latitude": 49.1912817,
        "longitude": -122.7928365
    },
    {
        "region": "CA",
        "id": 20406,
        "name": "BARRIENissan",
        "latitude": 44.339797,
        "longitude": -79.7006095
    },
    {
        "region": "CA",
        "id": 20408,
        "name": "ORANGEVILLEChrysler2",
        "latitude": 43.919296,
        "longitude": -80.0771716
    },
    {
        "region": "CA",
        "id": 20409,
        "name": "KelownaMercedes-Benz",
        "latitude": 49.8898354,
        "longitude": -119.4274269
    },
    {
        "region": "CA",
        "id": 20410,
        "name": "PentictonHonda",
        "latitude": 49.4858895,
        "longitude": -119.600247
    },
    {
        "region": "CA",
        "id": 20411,
        "name": "JubileeFordSales",
        "latitude": 52.08812649999999,
        "longitude": -106.6504353
    },
    {
        "region": "CA",
        "id": 20412,
        "name": "RoadsportChrysler",
        "latitude": 43.737585,
        "longitude": -79.2425385
    },
    {
        "region": "CA",
        "id": 20414,
        "name": "PacificHonda2",
        "latitude": 49.3168309,
        "longitude": -123.0981553
    },
    {
        "region": "CA",
        "id": 20415,
        "name": "OntarioMotorSalesChevroletCadillac",
        "latitude": 43.90397950000001,
        "longitude": -78.8369283
    },
    {
        "region": "CA",
        "id": 20416,
        "name": "BoulevardDodgeChryslerJeepFiat2000inc",
        "latitude": 45.5166014,
        "longitude": -73.658233
    },
    {
        "region": "CA",
        "id": 20417,
        "name": "Saint-LaurentHyundai",
        "latitude": 45.5170731,
        "longitude": -73.65817179999999
    },
    {
        "region": "CA",
        "id": 20418,
        "name": "MontmorencyFordLincoln",
        "latitude": 45.4602646,
        "longitude": -73.4650126
    },
    {
        "region": "CA",
        "id": 20419,
        "name": "ChaletGM",
        "latitude": 49.636513,
        "longitude": -115.9514344
    },
    {
        "region": "CA",
        "id": 20420,
        "name": "GorrudsAutoGroupHyundai/Toyota",
        "latitude": 43.5257906,
        "longitude": -79.8889749
    },
    {
        "region": "CA",
        "id": 20422,
        "name": "WolfeMitsubishi",
        "latitude": 49.1060965,
        "longitude": -122.68633
    },
    {
        "region": "CA",
        "id": 20423,
        "name": "CobourgHonda",
        "latitude": 43.97448929999999,
        "longitude": -78.1720977
    },
    {
        "region": "CA",
        "id": 20424,
        "name": "PETERBOROUGHVolkswagen",
        "latitude": 44.3266576,
        "longitude": -78.3409827
    },
    {
        "region": "CA",
        "id": 20425,
        "name": "AutoWestBMW",
        "latitude": 49.1839344,
        "longitude": -123.103698
    },
    {
        "region": "CA",
        "id": 20427,
        "name": "KelownaChryslerDodge",
        "latitude": 49.8849909,
        "longitude": -119.432045
    },
    {
        "region": "CA",
        "id": 20428,
        "name": "VernonToyota",
        "latitude": 50.28201740000001,
        "longitude": -119.2754476
    },
    {
        "region": "CA",
        "id": 20429,
        "name": "RiverCityNissan",
        "latitude": 50.6768545,
        "longitude": -120.2501444
    },
    {
        "region": "CA",
        "id": 20430,
        "name": "ZImmerWheatonPontiacBuickGMCLtd.",
        "latitude": 50.6635408,
        "longitude": -120.3547227
    },
    {
        "region": "CA",
        "id": 20431,
        "name": "ZimmerAutosportMercedes-Benz",
        "latitude": 50.6626527,
        "longitude": -120.3559444
    },
    {
        "region": "CA",
        "id": 20432,
        "name": "CrosbyVolkswageninc",
        "latitude": 43.43396,
        "longitude": -80.447011
    },
    {
        "region": "CA",
        "id": 20433,
        "name": "HuberBannisterChevrolet",
        "latitude": 49.4972241,
        "longitude": -119.6075986
    },
    {
        "region": "CA",
        "id": 20434,
        "name": "BannisterGMVernon",
        "latitude": 50.28193160000001,
        "longitude": -119.2665327
    },
    {
        "region": "CA",
        "id": 20435,
        "name": "Coupal&BrassardMitsubishi",
        "latitude": 45.3127934,
        "longitude": -73.2213733
    },
    {
        "region": "CA",
        "id": 20442,
        "name": "OpenRoadToyota-Richmond",
        "latitude": 49.1716319,
        "longitude": -123.0794133
    },
    {
        "region": "CA",
        "id": 20447,
        "name": "HullHyundaiGatineau",
        "latitude": 45.4726528,
        "longitude": -75.7396674
    },
    {
        "region": "CA",
        "id": 20448,
        "name": "SpinelliToyota",
        "latitude": 45.4671089,
        "longitude": -73.83366649999999
    },
    {
        "region": "CA",
        "id": 20449,
        "name": "TravelersFinancialCorporation",
        "latitude": 49.26541109999999,
        "longitude": -123.0110262
    },
    {
        "region": "CA",
        "id": 20450,
        "name": "SpinelliKia",
        "latitude": 45.49758449999999,
        "longitude": -73.8104051
    },
    {
        "region": "CA",
        "id": 20451,
        "name": "PentictonHyundai",
        "latitude": 49.4851572,
        "longitude": -119.5999091
    },
    {
        "region": "CA",
        "id": 20452,
        "name": "KelownaNissanLtd.",
        "latitude": 49.8974555,
        "longitude": -119.4123145
    },
    {
        "region": "CA",
        "id": 20454,
        "name": "MercedesBenzLangley",
        "latitude": 49.112921,
        "longitude": -122.6477943
    },
    {
        "region": "CA",
        "id": 20455,
        "name": "MiniRichmond",
        "latitude": 49.2700234,
        "longitude": -123.1762959
    },
    {
        "region": "CA",
        "id": 20456,
        "name": "PembrokeHonda",
        "latitude": 45.84154729999999,
        "longitude": -77.171688
    },
    {
        "region": "CA",
        "id": 20457,
        "name": "SmithChevroletCadillac",
        "latitude": 50.6646699,
        "longitude": -120.3675526
    },
    {
        "region": "CA",
        "id": 20458,
        "name": "WestowneMazda",
        "latitude": 43.63116249999999,
        "longitude": -79.545671
    },
    {
        "region": "CA",
        "id": 20459,
        "name": "RobertFornier",
        "latitude": 45.5809394,
        "longitude": -73.75540389999999
    },
    {
        "region": "CA",
        "id": 20460,
        "name": "MertinChevroletCadillacBuckGMCLtd",
        "latitude": 49.154774,
        "longitude": -121.9536859
    },
    {
        "region": "CA",
        "id": 20463,
        "name": "LangleyToyotatown",
        "latitude": 49.1131487,
        "longitude": -122.6511484
    },
    {
        "region": "CA",
        "id": 20464,
        "name": "AudiofMISSISSAUGA",
        "latitude": 43.6153993,
        "longitude": -79.704301
    },
    {
        "region": "CA",
        "id": 20467,
        "name": "DowntownNissan",
        "latitude": 49.2688783,
        "longitude": -123.1100836
    },
    {
        "region": "CA",
        "id": 20468,
        "name": "BMWMiniLaval",
        "latitude": 45.56446,
        "longitude": -73.7609882
    },
    {
        "region": "CA",
        "id": 20470,
        "name": "FreshAuto",
        "latitude": 43.015531,
        "longitude": -80.8747764
    },
    {
        "region": "CA",
        "id": 20471,
        "name": "LakeheadMotorsLtdChrysler",
        "latitude": 48.4088144,
        "longitude": -89.244869
    },
    {
        "region": "CA",
        "id": 20472,
        "name": "FosterKia",
        "latitude": 43.8065726,
        "longitude": -79.24374999999999
    },
    {
        "region": "CA",
        "id": 20473,
        "name": "Coupal&BrassardNissan",
        "latitude": 45.3304998,
        "longitude": -73.29083159999999
    },
    {
        "region": "CA",
        "id": 20474,
        "name": "Coupal&BrassardChamblyNissan",
        "latitude": 45.449646,
        "longitude": -73.29658859999999
    },
    {
        "region": "CA",
        "id": 20475,
        "name": "AutomobilesPailleInc.",
        "latitude": 46.0840799,
        "longitude": -73.185805
    },
    {
        "region": "CA",
        "id": 20476,
        "name": "SubaruMontreal",
        "latitude": 45.4993785,
        "longitude": -73.65051059999999
    },
    {
        "region": "CA",
        "id": 20477,
        "name": "EricksenInfiniti",
        "latitude": 53.5595971,
        "longitude": -113.6253275
    },
    {
        "region": "CA",
        "id": 20478,
        "name": "MurrayHonda",
        "latitude": 49.144392,
        "longitude": -121.981772
    },
    {
        "region": "CA",
        "id": 20479,
        "name": "YorkdaleToyota",
        "latitude": 43.7144816,
        "longitude": -79.4549109
    },
    {
        "region": "CA",
        "id": 20480,
        "name": "MidtownHonda",
        "latitude": 43.7269921,
        "longitude": -79.4577432
    },
    {
        "region": "CA",
        "id": 20481,
        "name": "BrianJesselBMW",
        "latitude": 49.2716477,
        "longitude": -123.0246216
    },
    {
        "region": "CA",
        "id": 20482,
        "name": "JennerChevroletBuickGMC",
        "latitude": 48.4500462,
        "longitude": -123.4646575
    },
    {
        "region": "CA",
        "id": 20483,
        "name": "VolkswagenL'Outaouais",
        "latitude": 45.4634823,
        "longitude": -75.73986800000002
    },
    {
        "region": "CA",
        "id": 20492,
        "name": "417InfinitiNissanLtdOTTAWA",
        "latitude": 45.4138809,
        "longitude": -75.6137016
    },
    {
        "region": "CA",
        "id": 20493,
        "name": "Circuit Ford Lincoln",
        "latitude": 45.6091606,
        "longitude": -73.6121028
    },
    {
        "region": "CA",
        "id": 20494,
        "name": "JackMcGeeChevroletCadillac",
        "latitude": 44.29058200000001,
        "longitude": -78.3439063
    },
    {
        "region": "CA",
        "id": 20495,
        "name": "Jackson'sToyotaBARRIE",
        "latitude": 44.3316033,
        "longitude": -79.7018247
    },
    {
        "region": "CA",
        "id": 20496,
        "name": "VaudreuilVolkswagen",
        "latitude": 45.4116971,
        "longitude": -74.0397603
    },
    {
        "region": "CA",
        "id": 20497,
        "name": "OpenRoadHonda",
        "latitude": 49.2181682,
        "longitude": -122.9596779
    },
    {
        "region": "CA",
        "id": 20498,
        "name": "5th&CarneyAutoSales",
        "latitude": 53.9204448,
        "longitude": -122.7693643
    },
    {
        "region": "CA",
        "id": 20499,
        "name": "OpenRoadLexusRichmond",
        "latitude": 49.1738659,
        "longitude": -123.0784083
    },
    {
        "region": "CA",
        "id": 20500,
        "name": "OpenRoadLexusPortMoody",
        "latitude": 49.2768673,
        "longitude": -122.8376973
    },
    {
        "region": "CA",
        "id": 20501,
        "name": "OpenRoadAudi",
        "latitude": 49.26648789999999,
        "longitude": -123.021773
    },
    {
        "region": "CA",
        "id": 20517,
        "name": "ForbesWaterlooMazda",
        "latitude": 43.498278,
        "longitude": -80.5427575
    },
    {
        "region": "CA",
        "id": 20518,
        "name": "WalkertonToyota",
        "latitude": 46.631801,
        "longitude": -67.664017
    },
    {
        "region": "CA",
        "id": 20519,
        "name": "JonkerHonda",
        "latitude": 49.1086812,
        "longitude": -122.6830338
    },
    {
        "region": "CA",
        "id": 20520,
        "name": "Vernon Chrysler Dodge Ltd",
        "latitude": 50.27915669999999,
        "longitude": -119.266663
    },
    {
        "region": "CA",
        "id": 20521,
        "name": "OpenRoadToyotaPortMoody",
        "latitude": 49.2768932,
        "longitude": -122.8365734
    },
    {
        "region": "CA",
        "id": 20523,
        "name": "PeterboroughHyundai/Subaru",
        "latitude": 44.3354419,
        "longitude": -78.3461878
    },
    {
        "region": "CA",
        "id": 20524,
        "name": "Vernon Kia",
        "latitude": 50.3102376,
        "longitude": -119.248742
    },
    {
        "region": "CA",
        "id": 20525,
        "name": "LambtonFord",
        "latitude": 42.9602636,
        "longitude": -82.37632169999999
    },
    {
        "region": "CA",
        "id": 20526,
        "name": "HaleyChevroletBuickGMC",
        "latitude": 49.4404194,
        "longitude": -123.7107487
    },
    {
        "region": "CA",
        "id": 20527,
        "name": "HumberviewGroupAutoParkToronto",
        "latitude": 43.7444538,
        "longitude": -79.3112695
    },
    {
        "region": "CA",
        "id": 20528,
        "name": "TriTownToyota",
        "latitude": 47.5409286,
        "longitude": -79.6744631
    },
    {
        "region": "CA",
        "id": 20530,
        "name": "KennebecDodgeChrysler",
        "latitude": 46.1280739,
        "longitude": -70.6862502
    },
    {
        "region": "CA",
        "id": 20531,
        "name": "ValleAutomobilesVW",
        "latitude": 46.1222085,
        "longitude": -70.6600941
    },
    {
        "region": "CA",
        "id": 20532,
        "name": "OkanaganChryslerJeepDodge",
        "latitude": 49.8950225,
        "longitude": -119.4147933
    },
    {
        "region": "CA",
        "id": 20534,
        "name": "WaterlooDodge",
        "latitude": 43.4644587,
        "longitude": -80.50357919999999
    },
    {
        "region": "CA",
        "id": 20535,
        "name": "OpenRoadHyundaiRichmond",
        "latitude": 49.1718598,
        "longitude": -123.0787415
    },
    {
        "region": "CA",
        "id": 20536,
        "name": "Lamborghini Montreal",
        "latitude": 46.60078290000001,
        "longitude": -71.53395139999999
    },
    {
        "region": "CA",
        "id": 20537,
        "name": "GeorgetownChryslerDodgeJeep",
        "latitude": 43.6493377,
        "longitude": -79.8861356
    },
    {
        "region": "CA",
        "id": 20538,
        "name": "AmherstToyota",
        "latitude": 45.808048,
        "longitude": -64.2027104
    },
    {
        "region": "CA",
        "id": 20539,
        "name": "JImPattisonHyundaiNorthshore",
        "latitude": 49.3155016,
        "longitude": -123.0953007
    },
    {
        "region": "CA",
        "id": 20540,
        "name": "EndrasInfiniti",
        "latitude": 43.8546397,
        "longitude": -79.00772669999999
    },
    {
        "region": "CA",
        "id": 20542,
        "name": "PETAWAWAToyota",
        "latitude": 45.8386592,
        "longitude": -77.1700534
    },
    {
        "region": "CA",
        "id": 20543,
        "name": "GoldKeyLangleyVolkswagen",
        "latitude": 49.10931840000001,
        "longitude": -122.6810081
    },
    {
        "region": "CA",
        "id": 20549,
        "name": "VillageChryslerDodgeRamJeepFiat",
        "latitude": 43.8424981,
        "longitude": -79.0249991
    },
    {
        "region": "CA",
        "id": 20550,
        "name": "RidgehillFordCAMBRIDGE",
        "latitude": 43.38527699999999,
        "longitude": -80.319878
    },
    {
        "region": "CA",
        "id": 20551,
        "name": "Miller-HughesFordLincolnCORNWALL",
        "latitude": 45.0263612,
        "longitude": -74.73328529999999
    },
    {
        "region": "CA",
        "id": 20552,
        "name": "GoderichToyota",
        "latitude": 43.7342829,
        "longitude": -81.6955273
    },
    {
        "region": "CA",
        "id": 20553,
        "name": "BMWVilleDeQuebec",
        "latitude": 46.8281656,
        "longitude": -71.27538659999999
    },
    {
        "region": "CA",
        "id": 20554,
        "name": "CentreMegaOccasion",
        "latitude": 46.1321473,
        "longitude": -70.697058
    },
    {
        "region": "CA",
        "id": 20556,
        "name": "LangevinSuzukiAutomobiles",
        "latitude": 45.5776708,
        "longitude": -73.88366979999999
    },
    {
        "region": "CA",
        "id": 20557,
        "name": "PrestigeFordInc.",
        "latitude": 45.2708658,
        "longitude": -74.1340208
    },
    {
        "region": "CA",
        "id": 20558,
        "name": "MurrayKiaAbbotsford",
        "latitude": 49.0608879,
        "longitude": -122.3825244
    },
    {
        "region": "CA",
        "id": 20559,
        "name": "MurrayGM",
        "latitude": 49.06116290000001,
        "longitude": -122.3828284
    },
    {
        "region": "CA",
        "id": 20560,
        "name": "SeawayChevroletCadillacBuickGMCLtd.",
        "latitude": 45.017433,
        "longitude": -74.7312857
    },
    {
        "region": "CA",
        "id": 20561,
        "name": "ChamblyKia",
        "latitude": 45.4548889,
        "longitude": -73.3028854
    },
    {
        "region": "CA",
        "id": 20562,
        "name": "1000IslandsToyota",
        "latitude": 44.6038757,
        "longitude": -75.7141671
    },
    {
        "region": "CA",
        "id": 20563,
        "name": "LoneStarMercedes-Benz",
        "latitude": 50.98546469999999,
        "longitude": -114.031615
    },
    {
        "region": "CA",
        "id": 20564,
        "name": "LonguePointeChryslerDodgeJeepRAM",
        "latitude": 45.5913456,
        "longitude": -73.5797808
    },
    {
        "region": "CA",
        "id": 20565,
        "name": "HyundaiofOakville",
        "latitude": 43.4094517,
        "longitude": -79.7350407
    },
    {
        "region": "CA",
        "id": 20566,
        "name": "KelownaAutosport",
        "latitude": 49.8954141,
        "longitude": -119.4110325
    },
    {
        "region": "CA",
        "id": 20569,
        "name": "AvantageFord",
        "latitude": 45.3898535,
        "longitude": -73.96632129999999
    },
    {
        "region": "CA",
        "id": 20570,
        "name": "SoveaAutosLtee/CapitaleNissan",
        "latitude": 46.831535,
        "longitude": -71.274089
    },
    {
        "region": "CA",
        "id": 20571,
        "name": "JohnScottiSubaru",
        "latitude": 45.57444419999999,
        "longitude": -73.5946496
    },
    {
        "region": "CA",
        "id": 20577,
        "name": "HumberviewVolkswagen",
        "latitude": 43.6165092,
        "longitude": -79.54641269999999
    },
    {
        "region": "CA",
        "id": 20578,
        "name": "Volkswagen Midtown Toronto",
        "latitude": 43.779581,
        "longitude": -79.30454309999999
    },
    {
        "region": "CA",
        "id": 20579,
        "name": "JohnstonChryslerFiat",
        "latitude": 43.2112826,
        "longitude": -79.8891426
    },
    {
        "region": "CA",
        "id": 20580,
        "name": "AudiLangley",
        "latitude": 49.1121425,
        "longitude": -122.6473918
    },
    {
        "region": "CA",
        "id": 20590,
        "name": "HumberviewBuickGMC",
        "latitude": 43.6164965,
        "longitude": -79.54640739999999
    },
    {
        "region": "CA",
        "id": 20591,
        "name": "KelownaBMW/MiniKelowna",
        "latitude": 49.88814,
        "longitude": -119.430899
    },
    {
        "region": "CA",
        "id": 20593,
        "name": "MarkMotorsofOttawaAudi",
        "latitude": 45.4427183,
        "longitude": -75.6427429
    },
    {
        "region": "CA",
        "id": 20602,
        "name": "WhiteRockHonda",
        "latitude": 49.04691070000001,
        "longitude": -122.7951662
    },
    {
        "region": "CA",
        "id": 20603,
        "name": "BourgeoisMotorsLtd.MIDLAND",
        "latitude": 44.7303548,
        "longitude": -79.8677223
    },
    {
        "region": "CA",
        "id": 20604,
        "name": "HondadeTerrebonne",
        "latitude": 45.7285103,
        "longitude": -73.6724622
    },
    {
        "region": "CA",
        "id": 20605,
        "name": "CornwallHonda",
        "latitude": 45.0270214,
        "longitude": -74.75165179999999
    },
    {
        "region": "CA",
        "id": 20606,
        "name": "KamloopsDodgeChryslerJeepLtd",
        "latitude": 50.67524890000001,
        "longitude": -120.2450657
    },
    {
        "region": "CA",
        "id": 20612,
        "name": "SkookumDodgeBC",
        "latitude": 49.4066601,
        "longitude": -123.5263489
    },
    {
        "region": "CA",
        "id": 20620,
        "name": "ChamblyToyota",
        "latitude": 45.4887451,
        "longitude": -73.3857752
    },
    {
        "region": "CA",
        "id": 20622,
        "name": "ValleyMitsubishi",
        "latitude": 49.8845519,
        "longitude": -119.4327978
    },
    {
        "region": "CA",
        "id": 20623,
        "name": "Volkswagendel'Estrie",
        "latitude": 45.3774216,
        "longitude": -71.97761919999999
    },
    {
        "region": "CA",
        "id": 20625,
        "name": "Mississauga Kia",
        "latitude": 43.5284589,
        "longitude": -79.67853149999999
    },
    {
        "region": "CA",
        "id": 20626,
        "name": "WoodbineCarCorp.",
        "latitude": 43.7139437,
        "longitude": -79.5929653
    },
    {
        "region": "CA",
        "id": 20627,
        "name": "Barry Cullen Chevrolet Cadillac Ltd.",
        "latitude": 43.5376865,
        "longitude": -80.3149364
    },
    {
        "region": "CA",
        "id": 20629,
        "name": "SouthsideMitsubishi",
        "latitude": 53.467014,
        "longitude": -113.4789904
    },
    {
        "region": "CA",
        "id": 20630,
        "name": "CobourgMazda",
        "latitude": 43.9746051,
        "longitude": -78.1721503
    },
    {
        "region": "CA",
        "id": 20631,
        "name": "BelAirToyota",
        "latitude": 45.4322692,
        "longitude": -75.6454279
    },
    {
        "region": "CA",
        "id": 20632,
        "name": "1273613OntarioInc.",
        "latitude": 45.0547712,
        "longitude": -74.7752035
    },
    {
        "region": "CA",
        "id": 20633,
        "name": "RiversideFordSalesLtd.",
        "latitude": 44.5954662,
        "longitude": -75.6899703
    },
    {
        "region": "CA",
        "id": 20634,
        "name": "BeattieDodgeChyslerLimited",
        "latitude": 44.5883445,
        "longitude": -75.68640289999999
    },
    {
        "region": "CA",
        "id": 20635,
        "name": "HyundaiWestIsland",
        "latitude": 45.4838597,
        "longitude": -73.7749998
    },
    {
        "region": "CA",
        "id": 20637,
        "name": "O'ConnorDodgeChrysler",
        "latitude": 49.171943,
        "longitude": -121.9502233
    },
    {
        "region": "CA",
        "id": 20638,
        "name": "RiversideChevroletBuick",
        "latitude": 44.6028059,
        "longitude": -75.7120686
    },
    {
        "region": "CA",
        "id": 20639,
        "name": "Mercedes-BenzdeQubec",
        "latitude": 46.8265632,
        "longitude": -71.2951386
    },
    {
        "region": "CA",
        "id": 20640,
        "name": "CobourgNissan",
        "latitude": 43.9751758,
        "longitude": -78.1724486
    },
    {
        "region": "CA",
        "id": 20649,
        "name": "StandardMotors",
        "latitude": 50.2822688,
        "longitude": -107.8029456
    },
    {
        "region": "CA",
        "id": 20650,
        "name": "PaulCoffeyKia",
        "latitude": 43.8740286,
        "longitude": -79.7105224
    },
    {
        "region": "CA",
        "id": 20651,
        "name": "KingswayHonda",
        "latitude": 49.2603935,
        "longitude": -123.0976785
    },
    {
        "region": "CA",
        "id": 20652,
        "name": "MikeKnappFord",
        "latitude": 43.0078733,
        "longitude": -79.2509429
    },
    {
        "region": "CA",
        "id": 20656,
        "name": "CadillacChevroletBuickGMCdel'ilePerrot",
        "latitude": 45.3856124,
        "longitude": -73.983976
    },
    {
        "region": "CA",
        "id": 20657,
        "name": "BruceChevroletBuickGMCLimited",
        "latitude": 44.9426281,
        "longitude": -65.0687717
    },
    {
        "region": "CA",
        "id": 20658,
        "name": "ScottCampbellDodge",
        "latitude": 52.7754948,
        "longitude": -108.2987814
    },
    {
        "region": "CA",
        "id": 20659,
        "name": "BarnabMazda",
        "latitude": 45.3406769,
        "longitude": -73.28942719999999
    },
    {
        "region": "CA",
        "id": 20660,
        "name": "WoodgroveChrysler",
        "latitude": 49.2386241,
        "longitude": -124.0490971
    },
    {
        "region": "CA",
        "id": 20661,
        "name": "MarkhamAcura",
        "latitude": 43.8658827,
        "longitude": -79.2868014
    },
    {
        "region": "CA",
        "id": 20662,
        "name": "UptownKIA",
        "latitude": 45.02880570000001,
        "longitude": -74.758988
    },
    {
        "region": "CA",
        "id": 20663,
        "name": "BayKingChrysler",
        "latitude": 43.2026563,
        "longitude": -79.8895964
    },
    {
        "region": "CA",
        "id": 20664,
        "name": "AutoPlanetDirect",
        "latitude": 43.7392802,
        "longitude": -79.7009171
    },
    {
        "region": "CA",
        "id": 20665,
        "name": "MapleHyundai",
        "latitude": 43.83486569999999,
        "longitude": -79.53703229999999
    },
    {
        "region": "CA",
        "id": 20667,
        "name": "CanadianCarsandTruckRental",
        "latitude": 49.1082584,
        "longitude": -122.6677888
    },
    {
        "region": "CA",
        "id": 20668,
        "name": "NotmanChysler",
        "latitude": 45.0325395,
        "longitude": -74.7826831
    },
    {
        "region": "CA",
        "id": 20670,
        "name": "Mercedes-BenzPeterborough",
        "latitude": 44.27011419999999,
        "longitude": -78.33917009999999
    },
    {
        "region": "CA",
        "id": 20672,
        "name": "Addison Chevrolet Buick GMC on Eglinton",
        "latitude": 43.6325303,
        "longitude": -79.6242535
    },
    {
        "region": "CA",
        "id": 20673,
        "name": "RevellFordLincoln",
        "latitude": 44.4808707,
        "longitude": -76.6939046
    },
    {
        "region": "CA",
        "id": 20674,
        "name": "BMWLangley",
        "latitude": 49.1123036,
        "longitude": -122.6475971
    },
    {
        "region": "CA",
        "id": 20675,
        "name": "BarnabNissandeChteauguay",
        "latitude": 45.3515706,
        "longitude": -73.7202322
    },
    {
        "region": "CA",
        "id": 20676,
        "name": "OttawaDodgeJeep",
        "latitude": 45.43222249999999,
        "longitude": -75.64192919999999
    },
    {
        "region": "CA",
        "id": 20677,
        "name": "HarmonyHyundai",
        "latitude": 45.55623509999999,
        "longitude": -75.2872182
    },
    {
        "region": "CA",
        "id": 20679,
        "name": "DonnellyFordLincoln",
        "latitude": 45.3531262,
        "longitude": -75.64393319999999
    },
    {
        "region": "CA",
        "id": 20680,
        "name": "BrossardMazda",
        "latitude": 45.44482439999999,
        "longitude": -73.4722142
    },
    {
        "region": "CA",
        "id": 20681,
        "name": "BuddsImportedCarsJaguarLandRover",
        "latitude": 43.4112664,
        "longitude": -79.7366444
    },
    {
        "region": "CA",
        "id": 20682,
        "name": "CornwallNissan",
        "latitude": 45.0258031,
        "longitude": -74.7499811
    },
    {
        "region": "CA",
        "id": 20683,
        "name": "BarnabdeSt-JeanChrysler",
        "latitude": 45.33785109999999,
        "longitude": -73.289054
    },
    {
        "region": "CA",
        "id": 20685,
        "name": "BarnabKia",
        "latitude": 45.3357409,
        "longitude": -73.2891503
    },
    {
        "region": "CA",
        "id": 20686,
        "name": "MuskokaKia",
        "latitude": 45.02469170000001,
        "longitude": -79.3152767
    },
    {
        "region": "CA",
        "id": 20687,
        "name": "AutoOneGroupLimited",
        "latitude": 43.7439732,
        "longitude": -79.5265422
    },
    {
        "region": "CA",
        "id": 20688,
        "name": "DeryToyota",
        "latitude": 45.3360382,
        "longitude": -73.2889366
    },
    {
        "region": "CA",
        "id": 20689,
        "name": "PorscheCenterVancouver",
        "latitude": 49.2707862,
        "longitude": -123.0901587
    },
    {
        "region": "CA",
        "id": 20691,
        "name": "BayfieldPlaceHoldings",
        "latitude": 50.7112281,
        "longitude": -120.3343784
    },
    {
        "region": "CA",
        "id": 20692,
        "name": "FreewayMazda",
        "latitude": 49.191444,
        "longitude": -122.79475
    },
    {
        "region": "CA",
        "id": 20693,
        "name": "MyersKanataHyundai",
        "latitude": 45.2923847,
        "longitude": -75.93070159999999
    },
    {
        "region": "CA",
        "id": 20694,
        "name": "GeorgianChevroletBuickGMCInc",
        "latitude": 44.3366234,
        "longitude": -79.6879634
    },
    {
        "region": "CA",
        "id": 20695,
        "name": "LexusOfEdmonton",
        "latitude": 53.5613241,
        "longitude": -113.6154779
    },
    {
        "region": "CA",
        "id": 20696,
        "name": "PembrokeNissan",
        "latitude": 45.8395275,
        "longitude": -77.1686484
    },
    {
        "region": "CA",
        "id": 20697,
        "name": "MurphyFord",
        "latitude": 45.8354107,
        "longitude": -77.15494699999999
    },
    {
        "region": "CA",
        "id": 20698,
        "name": "EastviewChevroletBuickGMCLtd.",
        "latitude": 49.4076634,
        "longitude": -82.3979112
    },
    {
        "region": "CA",
        "id": 20699,
        "name": "MYERSInfinitiNissanKanata",
        "latitude": 45.3197565,
        "longitude": -75.8389835
    },
    {
        "region": "CA",
        "id": 20700,
        "name": "4475518CanadaInc.",
        "latitude": 45.5896625,
        "longitude": -74.5925733
    },
    {
        "region": "CA",
        "id": 20701,
        "name": "CapitalDodgeChryslerJeep",
        "latitude": 45.294861,
        "longitude": -75.9334847
    },
    {
        "region": "CA",
        "id": 20703,
        "name": "UpperCanadaMotorSalesChevroletGM",
        "latitude": 44.9015757,
        "longitude": -75.1840538
    },
    {
        "region": "CA",
        "id": 20704,
        "name": "FraserFordSalesLimited",
        "latitude": 43.8902312,
        "longitude": -78.89348939999999
    },
    {
        "region": "CA",
        "id": 20705,
        "name": "SurgenorChevroletBuickGMCCadillac",
        "latitude": 45.4311021,
        "longitude": -75.6400462
    },
    {
        "region": "CA",
        "id": 20706,
        "name": "LakeHuronChrysler",
        "latitude": 43.73394589999999,
        "longitude": -81.7059671
    },
    {
        "region": "CA",
        "id": 20707,
        "name": "WestTorontoAutoLeasingandSales",
        "latitude": 43.6691395,
        "longitude": -79.4828149
    },
    {
        "region": "CA",
        "id": 20709,
        "name": "SurgenorHyundai",
        "latitude": 45.4317129,
        "longitude": -75.6412546
    },
    {
        "region": "CA",
        "id": 20710,
        "name": "WillowBrookChrysler",
        "latitude": 49.1112348,
        "longitude": -122.6770406
    },
    {
        "region": "CA",
        "id": 20711,
        "name": "AcuraofHamilton",
        "latitude": 43.2052553,
        "longitude": -79.8909242
    },
    {
        "region": "CA",
        "id": 20712,
        "name": "AddisonChevroletonErinMills",
        "latitude": 43.5977521,
        "longitude": -79.7395188
    },
    {
        "region": "CA",
        "id": 20718,
        "name": "JimPattisonHyundaiCoquitlam",
        "latitude": 41.581678,
        "longitude": -88.921827
    },
    {
        "region": "CA",
        "id": 20719,
        "name": "EliteAutomobileMontrealInc",
        "latitude": 45.49347179999999,
        "longitude": -73.6584955
    },
    {
        "region": "CA",
        "id": 20720,
        "name": "MercedesBenzLaval",
        "latitude": 45.5707879,
        "longitude": -73.7607422
    },
    {
        "region": "CA",
        "id": 20721,
        "name": "HolandAutomotiveGroup",
        "latitude": 45.50162359999999,
        "longitude": -73.6631733
    },
    {
        "region": "CA",
        "id": 20722,
        "name": "HoweSoundChryslerDodgeJeep",
        "latitude": 49.7032663,
        "longitude": -123.1458895
    },
    {
        "region": "CA",
        "id": 20724,
        "name": "PrestonGM",
        "latitude": 49.1133293,
        "longitude": -122.6693895
    },
    {
        "region": "CA",
        "id": 20725,
        "name": "OlympicHonda",
        "latitude": 43.532931,
        "longitude": -80.3217956
    },
    {
        "region": "CA",
        "id": 20726,
        "name": "GatineauAcura",
        "latitude": 45.47935460000001,
        "longitude": -75.6873763
    },
    {
        "region": "CA",
        "id": 20728,
        "name": "MurrayMotorsPenticton",
        "latitude": 49.4959973,
        "longitude": -119.6129503
    },
    {
        "region": "CA",
        "id": 20729,
        "name": "LincolnHeightsFordsSales",
        "latitude": 45.365699,
        "longitude": -75.788521
    },
    {
        "region": "CA",
        "id": 20730,
        "name": "ArbourAutomobiles",
        "latitude": 45.5705036,
        "longitude": -73.7673441
    },
    {
        "region": "CA",
        "id": 20731,
        "name": "KelownaToyota",
        "latitude": 49.895412,
        "longitude": -119.4095332
    },
    {
        "region": "CA",
        "id": 20732,
        "name": "SouthBankDodge",
        "latitude": 45.3612793,
        "longitude": -75.6547466
    },
    {
        "region": "CA",
        "id": 20733,
        "name": "CornwallVolkswagen",
        "latitude": 45.025637,
        "longitude": -74.732906
    },
    {
        "region": "CA",
        "id": 20734,
        "name": "KelownaFordLincoln",
        "latitude": 49.8884136,
        "longitude": -119.4289603
    },
    {
        "region": "CA",
        "id": 20735,
        "name": "DanMurphyFord",
        "latitude": 45.2222207,
        "longitude": -75.70535869999999
    },
    {
        "region": "CA",
        "id": 20736,
        "name": "BrantfordToyota",
        "latitude": 43.1737815,
        "longitude": -80.23815490000001
    },